[{"stop_name": "Kufstein Bahnhof", "stop_id": 8100001, "coordinates": [12.165703, 47.583034000000005], "country": "\u00d6sterreich"}, {"stop_name": "Salzburg Hbf", "stop_id": 8100002, "coordinates": [13.045558999999999, 47.812822], "country": "\u00d6sterreich"}, {"stop_name": "Wien Westbahnhof", "stop_id": 8100003, "coordinates": [16.337255, 48.196753], "country": "\u00d6sterreich"}, {"stop_name": "Wien Hbf (Autoreisezuganlage)", "stop_id": 8100004, "coordinates": [16.391002, 48.177873], "country": "\u00d6sterreich"}, {"stop_name": "Melk Bahnhof", "stop_id": 8100005, "coordinates": [15.330971, 48.224647999999995], "country": "\u00d6sterreich"}, {"stop_name": "P\u00f6chlarn Bahnhof", "stop_id": 8100006, "coordinates": [15.216601999999998, 48.208073999999996], "country": "\u00d6sterreich"}, {"stop_name": "Ybbs/Donau Bahnhof", "stop_id": 8100007, "coordinates": [15.099707, 48.158903], "country": "\u00d6sterreich"}, {"stop_name": "St.P\u00f6lten Hbf", "stop_id": 8100008, "coordinates": [15.623804000000002, 48.208332], "country": "\u00d6sterreich"}, {"stop_name": "St.Valentin Bahnhof", "stop_id": 8100009, "coordinates": [14.521760999999998, 48.179028], "country": "\u00d6sterreich"}, {"stop_name": "Steyr Bahnhof", "stop_id": 8100010, "coordinates": [14.423164000000002, 48.038201], "country": "\u00d6sterreich"}, {"stop_name": "Enns Bahnhof", "stop_id": 8100011, "coordinates": [14.466744, 48.221209], "country": "\u00d6sterreich"}, {"stop_name": "Amstetten N\u00d6 Bahnhof", "stop_id": 8100012, "coordinates": [14.878257000000001, 48.121528999999995], "country": "\u00d6sterreich"}, {"stop_name": "Linz/Donau Hbf", "stop_id": 8100013, "coordinates": [14.291813000000001, 48.290147999999995], "country": "\u00d6sterreich"}, {"stop_name": "Wels Hbf", "stop_id": 8100014, "coordinates": [14.026491, 48.166053999999995], "country": "\u00d6sterreich"}, {"stop_name": "Lambach Bahnhof", "stop_id": 8100015, "coordinates": [13.888464, 48.094004999999996], "country": "\u00d6sterreich"}, {"stop_name": "Schwanenstadt Bahnhof", "stop_id": 8100016, "coordinates": [13.768095, 48.05409], "country": "\u00d6sterreich"}, {"stop_name": "Attnang-Puchheim Bahnhof", "stop_id": 8100017, "coordinates": [13.720385999999998, 48.012188], "country": "\u00d6sterreich"}, {"stop_name": "Frankenmarkt Bahnhof", "stop_id": 8100018, "coordinates": [13.432615, 47.983104], "country": "\u00d6sterreich"}, {"stop_name": "Stra\u00dfwalchen Bahnhof", "stop_id": 8100019, "coordinates": [13.264475, 47.972085], "country": "\u00d6sterreich"}, {"stop_name": "Steindorf b.Stra\u00dfwalchen Bahnhof", "stop_id": 8100020, "coordinates": [13.239068, 47.966727], "country": "\u00d6sterreich"}, {"stop_name": "Bad Schallerbach-Wallern Bahnhof", "stop_id": 8100021, "coordinates": [13.922284, 48.228701], "country": "\u00d6sterreich"}, {"stop_name": "Grieskirchen-Gallspach Bahnhof", "stop_id": 8100022, "coordinates": [13.838947000000001, 48.23105], "country": "\u00d6sterreich"}, {"stop_name": "Neumarkt-Kallham Bahnhof", "stop_id": 8100023, "coordinates": [13.724653, 48.271428], "country": "\u00d6sterreich"}, {"stop_name": "Sch\u00e4rding Bahnhof", "stop_id": 8100024, "coordinates": [13.442568, 48.463456], "country": "\u00d6sterreich"}, {"stop_name": "Baden b.Wien Bahnhof", "stop_id": 8100025, "coordinates": [16.242777, 48.004053000000006], "country": "\u00d6sterreich"}, {"stop_name": "Gloggnitz Bahnhof", "stop_id": 8100026, "coordinates": [15.945905999999999, 47.677694], "country": "\u00d6sterreich"}, {"stop_name": "Payerbach-Reichenau Bahnhof", "stop_id": 8100027, "coordinates": [15.863012, 47.69605], "country": "\u00d6sterreich"}, {"stop_name": "Semmering Bahnhof", "stop_id": 8100028, "coordinates": [15.831028, 47.639703999999995], "country": "\u00d6sterreich"}, {"stop_name": "M\u00fcrzzuschlag Bahnhof", "stop_id": 8100029, "coordinates": [15.6772435, 47.607909899999996], "country": "\u00d6sterreich"}, {"stop_name": "Kindberg Bahnhof", "stop_id": 8100030, "coordinates": [15.448339, 47.501146000000006], "country": "\u00d6sterreich"}, {"stop_name": "Kapfenberg Bahnhof", "stop_id": 8100031, "coordinates": [15.292089, 47.445195], "country": "\u00d6sterreich"}, {"stop_name": "Bruck/Mur Bahnhof", "stop_id": 8100032, "coordinates": [15.279495, 47.413649], "country": "\u00d6sterreich"}, {"stop_name": "Frohnleiten Bahnhof", "stop_id": 8100033, "coordinates": [15.327110999999999, 47.266381], "country": "\u00d6sterreich"}, {"stop_name": "Peggau-Deutschfeistritz Bahnhof", "stop_id": 8100034, "coordinates": [15.343257999999999, 47.207237], "country": "\u00d6sterreich"}, {"stop_name": "Leibnitz Bahnhof", "stop_id": 8100035, "coordinates": [15.546851, 46.781221], "country": "\u00d6sterreich"}, {"stop_name": "Sattendorf Bahnhof", "stop_id": 8100036, "coordinates": [13.91646, 46.662828999999995], "country": "\u00d6sterreich"}, {"stop_name": "Ossiach-Bodensdorf Bahnhof", "stop_id": 8100037, "coordinates": [13.974235, 46.682586], "country": "\u00d6sterreich"}, {"stop_name": "Steindorf/Ossiacher See Bahnhof", "stop_id": 8100038, "coordinates": [14.014097, 46.698196], "country": "\u00d6sterreich"}, {"stop_name": "Feldkirchen in Ktn Bahnhof", "stop_id": 8100039, "coordinates": [14.098996, 46.721511], "country": "\u00d6sterreich"}, {"stop_name": "Hallein Bahnhof", "stop_id": 8100040, "coordinates": [13.099324000000001, 47.685275], "country": "\u00d6sterreich"}, {"stop_name": "Golling-Abtenau Bahnhof", "stop_id": 8100041, "coordinates": [13.164053899999999, 47.6008099], "country": "\u00d6sterreich"}, {"stop_name": "Bischofshofen Bahnhof", "stop_id": 8100042, "coordinates": [13.220054000000001, 47.417871999999996], "country": "\u00d6sterreich"}, {"stop_name": "St.Johann im Pongau Bahnhof", "stop_id": 8100043, "coordinates": [13.194859, 47.348166], "country": "\u00d6sterreich"}, {"stop_name": "Schwarzach-St.Veit Bahnhof", "stop_id": 8100044, "coordinates": [13.154518, 47.318622999999995], "country": "\u00d6sterreich"}, {"stop_name": "Lend/Salzach Bahnhof", "stop_id": 8100045, "coordinates": [13.055449000000001, 47.297499], "country": "\u00d6sterreich"}, {"stop_name": "Taxenbach-Rauris Bahnhof", "stop_id": 8100046, "coordinates": [12.947381, 47.292773], "country": "\u00d6sterreich"}, {"stop_name": "Bruck-Fusch Bahnhof", "stop_id": 8100047, "coordinates": [12.828874, 47.284614000000005], "country": "\u00d6sterreich"}, {"stop_name": "Zell am See Bahnhof", "stop_id": 8100048, "coordinates": [12.796517, 47.320513], "country": "\u00d6sterreich"}, {"stop_name": "Saalfelden Bahnhof", "stop_id": 8100049, "coordinates": [12.829647999999999, 47.426903], "country": "\u00d6sterreich"}, {"stop_name": "Maishofen-Saalbach Bahnhof", "stop_id": 8100050, "coordinates": [12.81025, 47.358666], "country": "\u00d6sterreich"}, {"stop_name": "Leogang Bahnhof", "stop_id": 8100051, "coordinates": [12.740179, 47.443477], "country": "\u00d6sterreich"}, {"stop_name": "Hochfilzen Bahnhof", "stop_id": 8100052, "coordinates": [12.626662, 47.467378000000004], "country": "\u00d6sterreich"}, {"stop_name": "Fieberbrunn Bahnhof", "stop_id": 8100053, "coordinates": [12.528983, 47.491165], "country": "\u00d6sterreich"}, {"stop_name": "St.Johann in Tirol Bahnhof", "stop_id": 8100054, "coordinates": [12.430753999999999, 47.519653999999996], "country": "\u00d6sterreich"}, {"stop_name": "Kitzb\u00fchel Bahnhof", "stop_id": 8100055, "coordinates": [12.391091000000001, 47.454014], "country": "\u00d6sterreich"}, {"stop_name": "Arnoldstein Bahnhof", "stop_id": 8100056, "coordinates": [13.707687, 46.551466], "country": "\u00d6sterreich"}, {"stop_name": "Kirchberg in Tirol Bahnhof", "stop_id": 8100057, "coordinates": [12.30909, 47.448899], "country": "\u00d6sterreich"}, {"stop_name": "Westendorf in Tirol Bahnhof", "stop_id": 8100058, "coordinates": [12.223125999999999, 47.441163], "country": "\u00d6sterreich"}, {"stop_name": "Hopfgarten im Brixental Bahnhof", "stop_id": 8100059, "coordinates": [12.149121000000001, 47.455360999999996], "country": "\u00d6sterreich"}, {"stop_name": "Telfs-Pfaffenhofen Bahnhof", "stop_id": 8100060, "coordinates": [11.078582, 47.300665], "country": "\u00d6sterreich"}, {"stop_name": "\u00d6tztal Bahnhof", "stop_id": 8100061, "coordinates": [10.859074, 47.238558000000005], "country": "\u00d6sterreich"}, {"stop_name": "Imst-Pitztal Bahnhof", "stop_id": 8100062, "coordinates": [10.76072, 47.219091], "country": "\u00d6sterreich"}, {"stop_name": "Landeck-Zams Bahnhof", "stop_id": 8100063, "coordinates": [10.578539, 47.148216999999995], "country": "\u00d6sterreich"}, {"stop_name": "St.Anton am Arlberg Bahnhof", "stop_id": 8100064, "coordinates": [10.267242, 47.127428], "country": "\u00d6sterreich"}, {"stop_name": "Langen am Arlberg Bahnhof", "stop_id": 8100065, "coordinates": [10.121753, 47.131555], "country": "\u00d6sterreich"}, {"stop_name": "Ludesch Bahnhof", "stop_id": 8100066, "coordinates": [9.7712338, 47.180291600000004], "country": "\u00d6sterreich"}, {"stop_name": "Bludenz Bahnhof", "stop_id": 8100067, "coordinates": [9.814755, 47.154748], "country": "\u00d6sterreich"}, {"stop_name": "Nenzing Bahnhof", "stop_id": 8100068, "coordinates": [9.708076, 47.191641], "country": "\u00d6sterreich"}, {"stop_name": "Frastanz Bahnhof", "stop_id": 8100069, "coordinates": [9.638994, 47.22005], "country": "\u00d6sterreich"}, {"stop_name": "Leoben Hbf", "stop_id": 8100070, "coordinates": [15.089529999999998, 47.386567], "country": "\u00d6sterreich"}, {"stop_name": "St.Michael in Oberstmk Bahnhof", "stop_id": 8100071, "coordinates": [15.009178, 47.34673], "country": "\u00d6sterreich"}, {"stop_name": "Knittelfeld Bahnhof", "stop_id": 8100072, "coordinates": [14.837616, 47.215294], "country": "\u00d6sterreich"}, {"stop_name": "Judenburg Bahnhof", "stop_id": 8100073, "coordinates": [14.659907, 47.174721000000005], "country": "\u00d6sterreich"}, {"stop_name": "Unzmarkt Bahnhof", "stop_id": 8100074, "coordinates": [14.442321, 47.201103], "country": "\u00d6sterreich"}, {"stop_name": "Neumarkt in Stmk Bahnhof", "stop_id": 8100075, "coordinates": [14.414926999999999, 47.073485], "country": "\u00d6sterreich"}, {"stop_name": "Friesach in Ktn Bahnhof", "stop_id": 8100076, "coordinates": [14.410264999999999, 46.953714], "country": "\u00d6sterreich"}, {"stop_name": "Launsdorf-Hochosterwitz Bahnhof", "stop_id": 8100077, "coordinates": [14.455632999999999, 46.768884], "country": "\u00d6sterreich"}, {"stop_name": "St.Veit/Glan Bahnhof", "stop_id": 8100078, "coordinates": [14.36701, 46.770108], "country": "\u00d6sterreich"}, {"stop_name": "Krumpendorf/W\u00f6rther See Bahnhof", "stop_id": 8100079, "coordinates": [14.221442000000001, 46.62632], "country": "\u00d6sterreich"}, {"stop_name": "P\u00f6rtschach/W\u00f6rther See Bahnhof", "stop_id": 8100080, "coordinates": [14.146285999999998, 46.636196999999996], "country": "\u00d6sterreich"}, {"stop_name": "Velden/W\u00f6rther See Bahnhof", "stop_id": 8100081, "coordinates": [14.044834, 46.620016], "country": "\u00d6sterreich"}, {"stop_name": "Spielfeld-Stra\u00df Bahnhof", "stop_id": 8100082, "coordinates": [15.629121, 46.709581], "country": "\u00d6sterreich"}, {"stop_name": "Rosenbach b.Villach Bahnhof", "stop_id": 8100083, "coordinates": [14.035472, 46.530893], "country": "\u00d6sterreich"}, {"stop_name": "Faak am See Bahnhof", "stop_id": 8100084, "coordinates": [13.913316, 46.564356], "country": "\u00d6sterreich"}, {"stop_name": "Klagenfurt Hbf", "stop_id": 8100085, "coordinates": [14.313576000000001, 46.615603], "country": "\u00d6sterreich"}, {"stop_name": "Paternion-Feistritz Bahnhst", "stop_id": 8100086, "coordinates": [13.674674, 46.7067932], "country": "\u00d6sterreich"}, {"stop_name": "M\u00fchldorf-M\u00f6llbr\u00fccke Bahnhof", "stop_id": 8100087, "coordinates": [13.367020000000002, 46.851402], "country": "\u00d6sterreich"}, {"stop_name": "Scharnitz Bahnhof", "stop_id": 8100088, "coordinates": [11.266963, 47.39229], "country": "\u00d6sterreich"}, {"stop_name": "Bregenz Bahnhof", "stop_id": 8100090, "coordinates": [9.740752, 47.503296], "country": "\u00d6sterreich"}, {"stop_name": "Kolbnitz Bahnhof", "stop_id": 8100091, "coordinates": [13.321824, 46.87834], "country": "\u00d6sterreich"}, {"stop_name": "Spittal-Millst\u00e4tter See Bahnhof", "stop_id": 8100092, "coordinates": [13.487482, 46.79569], "country": "\u00d6sterreich"}, {"stop_name": "Mallnitz-Obervellach Bahnhof", "stop_id": 8100093, "coordinates": [13.176141000000001, 46.981646999999995], "country": "\u00d6sterreich"}, {"stop_name": "B\u00f6ckstein Bahnhof", "stop_id": 8100094, "coordinates": [13.130438, 47.080574], "country": "\u00d6sterreich"}, {"stop_name": "Bad Gastein Bahnhof", "stop_id": 8100095, "coordinates": [13.132041000000001, 47.111306], "country": "\u00d6sterreich"}, {"stop_name": "Treibach-Althofen Bahnhof", "stop_id": 8100096, "coordinates": [14.465567000000002, 46.868517], "country": "\u00d6sterreich"}, {"stop_name": "Bad Hofgastein Bahnhof", "stop_id": 8100097, "coordinates": [13.100503, 47.195343], "country": "\u00d6sterreich"}, {"stop_name": "Dorfgastein Bahnhof", "stop_id": 8100098, "coordinates": [13.103218, 47.238177], "country": "\u00d6sterreich"}, {"stop_name": "W\u00f6rgl Hbf", "stop_id": 8100099, "coordinates": [12.060653, 47.491515], "country": "\u00d6sterreich"}, {"stop_name": "Kundl Bahnhof", "stop_id": 8100100, "coordinates": [11.981995, 47.475996], "country": "\u00d6sterreich"}, {"stop_name": "Brixlegg Bahnhof", "stop_id": 8100101, "coordinates": [11.879912, 47.434746999999994], "country": "\u00d6sterreich"}, {"stop_name": "Jenbach Bahnhof", "stop_id": 8100102, "coordinates": [11.778606, 47.388582], "country": "\u00d6sterreich"}, {"stop_name": "Schwaz Bahnhof", "stop_id": 8100103, "coordinates": [11.701862, 47.350075], "country": "\u00d6sterreich"}, {"stop_name": "Fritzens-Wattens Bahnhof", "stop_id": 8100104, "coordinates": [11.588965, 47.302135], "country": "\u00d6sterreich"}, {"stop_name": "Hall in Tirol Bahnhof", "stop_id": 8100105, "coordinates": [11.501375999999999, 47.27695], "country": "\u00d6sterreich"}, {"stop_name": "Matrei am Brenner Bahnhof", "stop_id": 8100106, "coordinates": [11.452776, 47.127069], "country": "\u00d6sterreich"}, {"stop_name": "Steinach am Brenner Bahnhst", "stop_id": 8100107, "coordinates": [11.469841, 47.089256], "country": "\u00d6sterreich"}, {"stop_name": "Innsbruck Hbf", "stop_id": 8100108, "coordinates": [11.401019999999999, 47.263044], "country": "\u00d6sterreich"}, {"stop_name": "Innsbruck Westbahnhof", "stop_id": 8100109, "coordinates": [11.391908, 47.255621000000005], "country": "\u00d6sterreich"}, {"stop_name": "Innsbruck H\u00f6tting Bahnhof", "stop_id": 8100110, "coordinates": [11.373827, 47.261253], "country": "\u00d6sterreich"}, {"stop_name": "Hochzirl Bahnhof", "stop_id": 8100111, "coordinates": [11.249692, 47.280982], "country": "\u00d6sterreich"}, {"stop_name": "Reith b.Seefeld Bahnhof", "stop_id": 8100112, "coordinates": [11.200600999999999, 47.30095], "country": "\u00d6sterreich"}, {"stop_name": "Seefeld in Tirol Bahnhof", "stop_id": 8100113, "coordinates": [11.189492, 47.328889000000004], "country": "\u00d6sterreich"}, {"stop_name": "Schruns Bahnhof", "stop_id": 8100117, "coordinates": [9.917726, 47.079452], "country": "\u00d6sterreich"}, {"stop_name": "Tschagguns Bahnhof", "stop_id": 8100118, "coordinates": [9.90447, 47.079215000000005], "country": "\u00d6sterreich"}, {"stop_name": "Rankweil Bahnhof", "stop_id": 8100119, "coordinates": [9.637543, 47.272042], "country": "\u00d6sterreich"}, {"stop_name": "G\u00f6tzis Bahnhof", "stop_id": 8100120, "coordinates": [9.636813, 47.336762], "country": "\u00d6sterreich"}, {"stop_name": "Hohenems Bahnhof", "stop_id": 8100121, "coordinates": [9.681654, 47.365118], "country": "\u00d6sterreich"}, {"stop_name": "Dornbirn Bahnhof", "stop_id": 8100122, "coordinates": [9.738289, 47.417506], "country": "\u00d6sterreich"}, {"stop_name": "Lustenau Bahnhof", "stop_id": 8100123, "coordinates": [9.66693, 47.450435999999996], "country": "\u00d6sterreich"}, {"stop_name": "Lochau-H\u00f6rbranz Bahnhof", "stop_id": 8100124, "coordinates": [9.74237, 47.529533], "country": "\u00d6sterreich"}, {"stop_name": "Mautern in Stmk Bahnhof", "stop_id": 8100125, "coordinates": [14.836051000000001, 47.396784000000004], "country": "\u00d6sterreich"}, {"stop_name": "Kalwang Bahnhof", "stop_id": 8100126, "coordinates": [14.746939999999999, 47.423689], "country": "\u00d6sterreich"}, {"stop_name": "Wald am Schoberpass Bahnhof", "stop_id": 8100127, "coordinates": [14.670786999999999, 47.450377], "country": "\u00d6sterreich"}, {"stop_name": "Trieben Bahnhof", "stop_id": 8100128, "coordinates": [14.489260999999999, 47.489196], "country": "\u00d6sterreich"}, {"stop_name": "Gm\u00fcnd N\u00d6 Bahnhof", "stop_id": 8100129, "coordinates": [14.985022, 48.76423], "country": "\u00d6sterreich"}, {"stop_name": "Hohenau/March Bahnhof", "stop_id": 8100130, "coordinates": [16.900942999999998, 48.598251], "country": "\u00d6sterreich"}, {"stop_name": "Liezen Bahnhof", "stop_id": 8100131, "coordinates": [14.24187, 47.562689], "country": "\u00d6sterreich"}, {"stop_name": "Stainach-Irdning Bahnhof", "stop_id": 8100132, "coordinates": [14.107181, 47.529231], "country": "\u00d6sterreich"}, {"stop_name": "\u00d6blarn Bahnhof", "stop_id": 8100133, "coordinates": [13.987627, 47.46069], "country": "\u00d6sterreich"}, {"stop_name": "Neumarkt/Wallersee Bahnhof", "stop_id": 8100134, "coordinates": [13.225961900000001, 47.955839399999995], "country": "\u00d6sterreich"}, {"stop_name": "Gr\u00f6bming Bahnhof", "stop_id": 8100135, "coordinates": [13.900863000000001, 47.42688], "country": "\u00d6sterreich"}, {"stop_name": "Haus im Ennstal Bahnhof", "stop_id": 8100136, "coordinates": [13.801295000000001, 47.416990000000006], "country": "\u00d6sterreich"}, {"stop_name": "Schladming Bahnhof", "stop_id": 8100137, "coordinates": [13.678410000000001, 47.393874], "country": "\u00d6sterreich"}, {"stop_name": "Radstadt Bahnhof", "stop_id": 8100138, "coordinates": [13.468582999999999, 47.384423999999996], "country": "\u00d6sterreich"}, {"stop_name": "Altenmarkt im Pongau Bahnhof", "stop_id": 8100139, "coordinates": [13.429326999999999, 47.38217], "country": "\u00d6sterreich"}, {"stop_name": "Eben im Pongau Bahnhof", "stop_id": 8100140, "coordinates": [13.396652, 47.406543], "country": "\u00d6sterreich"}, {"stop_name": "Lienz in Osttirol Bahnhof", "stop_id": 8100141, "coordinates": [12.770887, 46.828283], "country": "\u00d6sterreich"}, {"stop_name": "Sillian Bahnhof", "stop_id": 8100142, "coordinates": [12.424975, 46.745552], "country": "\u00d6sterreich"}, {"stop_name": "D\u00f6lsach Bahnhof", "stop_id": 8100143, "coordinates": [12.833566000000001, 46.814803999999995], "country": "\u00d6sterreich"}, {"stop_name": "Oberdrauburg Bahnhof", "stop_id": 8100144, "coordinates": [12.973766, 46.746355], "country": "\u00d6sterreich"}, {"stop_name": "Dellach im Drautal Bahnhof", "stop_id": 8100145, "coordinates": [13.07531, 46.735811], "country": "\u00d6sterreich"}, {"stop_name": "Greifenburg-Wei\u00dfensee Bahnhof", "stop_id": 8100146, "coordinates": [13.190941, 46.741168], "country": "\u00d6sterreich"}, {"stop_name": "Villach Hbf", "stop_id": 8100147, "coordinates": [13.848710999999998, 46.618624], "country": "\u00d6sterreich"}, {"stop_name": "Villach Westbahnhof", "stop_id": 8100148, "coordinates": [13.840142000000002, 46.608096], "country": "\u00d6sterreich"}, {"stop_name": "Steinfeld im Drautal Bahnhof", "stop_id": 8100149, "coordinates": [13.259609, 46.75258], "country": "\u00d6sterreich"}, {"stop_name": "Selzthal Bahnhof", "stop_id": 8100150, "coordinates": [14.313198000000002, 47.55055], "country": "\u00d6sterreich"}, {"stop_name": "Gmunden Bahnhof", "stop_id": 8100151, "coordinates": [13.784011999999999, 47.926088], "country": "\u00d6sterreich"}, {"stop_name": "Altm\u00fcnster/Traunsee Bahnhof", "stop_id": 8100152, "coordinates": [13.758310999999999, 47.891228000000005], "country": "\u00d6sterreich"}, {"stop_name": "Traunkirchen Bahnhof", "stop_id": 8100153, "coordinates": [13.777138, 47.855199], "country": "\u00d6sterreich"}, {"stop_name": "Gaflenz Bahnhof", "stop_id": 8100154, "coordinates": [14.723657999999999, 47.893778000000005], "country": "\u00d6sterreich"}, {"stop_name": "Ebensee Bahnhof", "stop_id": 8100155, "coordinates": [13.771460999999999, 47.804348], "country": "\u00d6sterreich"}, {"stop_name": "Kleinreifling Bahnhof", "stop_id": 8100156, "coordinates": [14.642182, 47.823964000000004], "country": "\u00d6sterreich"}, {"stop_name": "Bad Ischl Bahnhof", "stop_id": 8100157, "coordinates": [13.627618, 47.712137], "country": "\u00d6sterreich"}, {"stop_name": "Hieflau Bahnhof", "stop_id": 8100158, "coordinates": [14.737554999999999, 47.607801], "country": "\u00d6sterreich"}, {"stop_name": "Gstatterboden im Nationalpark Bahnhof", "stop_id": 8100159, "coordinates": [14.633567999999999, 47.591367], "country": "\u00d6sterreich"}, {"stop_name": "Bad Goisern Bahnhof", "stop_id": 8100160, "coordinates": [13.613028, 47.639705], "country": "\u00d6sterreich"}, {"stop_name": "Admont Bahnhof", "stop_id": 8100161, "coordinates": [14.468411999999999, 47.573334], "country": "\u00d6sterreich"}, {"stop_name": "Steeg-Gosau Bahnhof", "stop_id": 8100162, "coordinates": [13.632024, 47.616158], "country": "\u00d6sterreich"}, {"stop_name": "Obertraun Dachsteinh\u00f6hlen Bahnhof", "stop_id": 8100163, "coordinates": [13.683735, 47.557503000000004], "country": "\u00d6sterreich"}, {"stop_name": "Bad Aussee Bahnhof", "stop_id": 8100164, "coordinates": [13.777232000000001, 47.599037], "country": "\u00d6sterreich"}, {"stop_name": "Bad Mitterndorf Bahnhof", "stop_id": 8100165, "coordinates": [13.946072000000001, 47.550262], "country": "\u00d6sterreich"}, {"stop_name": "Tauplitz Bahnhof", "stop_id": 8100166, "coordinates": [14.011298000000002, 47.551519], "country": "\u00d6sterreich"}, {"stop_name": "Rohr-Bad Hall Bahnhof", "stop_id": 8100167, "coordinates": [14.191204999999998, 48.069586], "country": "\u00d6sterreich"}, {"stop_name": "Kremsm\u00fcnster Bahnhof", "stop_id": 8100169, "coordinates": [14.141353, 48.05357], "country": "\u00d6sterreich"}, {"stop_name": "Kirchdorf/Krems Bahnhof", "stop_id": 8100170, "coordinates": [14.116245999999999, 47.906187], "country": "\u00d6sterreich"}, {"stop_name": "Klaus an der Pyhrnbahn Bahnhof", "stop_id": 8100171, "coordinates": [14.155091, 47.832967], "country": "\u00d6sterreich"}, {"stop_name": "Hinterstoder Bahnhof", "stop_id": 8100172, "coordinates": [14.178992000000001, 47.774642], "country": "\u00d6sterreich"}, {"stop_name": "Graz Hbf", "stop_id": 8100173, "coordinates": [15.416464000000001, 47.072503000000005], "country": "\u00d6sterreich"}, {"stop_name": "Feldbach/Raab Bahnhof", "stop_id": 8100175, "coordinates": [15.888569, 46.958559], "country": "\u00d6sterreich"}, {"stop_name": "Fehring Bahnhof", "stop_id": 8100176, "coordinates": [16.012683, 46.949465999999994], "country": "\u00d6sterreich"}, {"stop_name": "F\u00fcrstenfeld Bahnhof", "stop_id": 8100177, "coordinates": [16.083889000000003, 47.042165000000004], "country": "\u00d6sterreich"}, {"stop_name": "Bierbaum/Safen Bahnhof", "stop_id": 8100178, "coordinates": [16.074268, 47.098001000000004], "country": "\u00d6sterreich"}, {"stop_name": "Sebersdorf Bahnhof", "stop_id": 8100179, "coordinates": [15.999037, 47.188866], "country": "\u00d6sterreich"}, {"stop_name": "Hartberg Bahnhof", "stop_id": 8100180, "coordinates": [15.984971, 47.281261], "country": "\u00d6sterreich"}, {"stop_name": "St.Johann in der Haide Bahnhof", "stop_id": 8100181, "coordinates": [16.035256, 47.280619], "country": "\u00d6sterreich"}, {"stop_name": "Grafendorf b.Hartberg Bahnhof", "stop_id": 8100182, "coordinates": [16.003544, 47.346641999999996], "country": "\u00d6sterreich"}, {"stop_name": "Rohrbach-Vorau Bahnhof", "stop_id": 8100183, "coordinates": [15.985757999999999, 47.390529], "country": "\u00d6sterreich"}, {"stop_name": "Friedberg in Stmk Bahnhof", "stop_id": 8100185, "coordinates": [16.053936, 47.434711], "country": "\u00d6sterreich"}, {"stop_name": "Pinggau Markt Bahnhof", "stop_id": 8100186, "coordinates": [16.061062, 47.440537], "country": "\u00d6sterreich"}, {"stop_name": "Tauchen-Schaueregg Bahnhof", "stop_id": 8100187, "coordinates": [16.054776999999998, 47.48284], "country": "\u00d6sterreich"}, {"stop_name": "Aspang Markt Bahnhof", "stop_id": 8100188, "coordinates": [16.099581, 47.56235], "country": "\u00d6sterreich"}, {"stop_name": "Edlitz-Grimmenstein Bahnhof", "stop_id": 8100189, "coordinates": [16.127857000000002, 47.616918], "country": "\u00d6sterreich"}, {"stop_name": "Seebenstein Bahnhof", "stop_id": 8100190, "coordinates": [16.142784, 47.703319], "country": "\u00d6sterreich"}, {"stop_name": "Pitten Bahnhof", "stop_id": 8100191, "coordinates": [16.179579, 47.717172999999995], "country": "\u00d6sterreich"}, {"stop_name": "Bad Erlach Bahnhof", "stop_id": 8100192, "coordinates": [16.211851, 47.732040999999995], "country": "\u00d6sterreich"}, {"stop_name": "Raaba Bahnhof", "stop_id": 8100193, "coordinates": [15.496014, 47.030133], "country": "\u00d6sterreich"}, {"stop_name": "La\u00dfnitzh\u00f6he Bahnhof", "stop_id": 8100194, "coordinates": [15.588409, 47.078922], "country": "\u00d6sterreich"}, {"stop_name": "Gleisdorf Bahnhof", "stop_id": 8100195, "coordinates": [15.708938, 47.099416999999995], "country": "\u00d6sterreich"}, {"stop_name": "Studenzen-Fladnitz Bahnhof", "stop_id": 8100196, "coordinates": [15.774868, 46.998822], "country": "\u00d6sterreich"}, {"stop_name": "Feldkirch Bahnhof", "stop_id": 8100197, "coordinates": [9.60423, 47.240926], "country": "\u00d6sterreich"}, {"stop_name": "Bruck/Leitha Bahnhof", "stop_id": 8100198, "coordinates": [16.779841, 48.019067], "country": "\u00d6sterreich"}, {"stop_name": "Schwarzenau im Waldviertel Bahnhof", "stop_id": 8100199, "coordinates": [15.267208800000002, 48.7462712], "country": "\u00d6sterreich"}, {"stop_name": "G\u00f6pfritz an der Wild Bahnhof", "stop_id": 8100200, "coordinates": [15.394697, 48.729769], "country": "\u00d6sterreich"}, {"stop_name": "Eggenburg Bahnhof", "stop_id": 8100201, "coordinates": [15.814537, 48.637856], "country": "\u00d6sterreich"}, {"stop_name": "Absdorf-Hippersdorf Bahnhof", "stop_id": 8100202, "coordinates": [15.986173999999998, 48.401855], "country": "\u00d6sterreich"}, {"stop_name": "Tulln/Donau Bahnhof", "stop_id": 8100203, "coordinates": [16.064563, 48.327446], "country": "\u00d6sterreich"}, {"stop_name": "Abfaltersbach/Drau Bahnhst", "stop_id": 8100204, "coordinates": [12.5291455, 46.7581581], "country": "\u00d6sterreich"}, {"stop_name": "Achau Bahnhof", "stop_id": 8100205, "coordinates": [16.378490900000003, 48.08045870000001], "country": "\u00d6sterreich"}, {"stop_name": "Aigen-Schl\u00e4gl Bahnhof", "stop_id": 8100208, "coordinates": [13.974946, 48.642625], "country": "\u00d6sterreich"}, {"stop_name": "Allentsteig Bahnhof", "stop_id": 8100210, "coordinates": [15.329958, 48.715846], "country": "\u00d6sterreich"}, {"stop_name": "Andorf Bahnhof", "stop_id": 8100211, "coordinates": [13.565722000000001, 48.369554], "country": "\u00d6sterreich"}, {"stop_name": "Annenheim Bahnhof", "stop_id": 8100213, "coordinates": [13.901391, 46.658553999999995], "country": "\u00d6sterreich"}, {"stop_name": "Antiesenhofen Bahnhof", "stop_id": 8100215, "coordinates": [13.402084, 48.347362], "country": "\u00d6sterreich"}, {"stop_name": "Baumgarten-Schattendorf Bahnhof", "stop_id": 8100216, "coordinates": [16.517867000000003, 47.727781], "country": "\u00d6sterreich"}, {"stop_name": "Donnerskirchen Bahnhof", "stop_id": 8100219, "coordinates": [16.660453, 47.88862], "country": "\u00d6sterreich"}, {"stop_name": "Dra\u00dfburg Bahnhof", "stop_id": 8100220, "coordinates": [16.494694, 47.74783], "country": "\u00d6sterreich"}, {"stop_name": "Dr\u00f6sing Bahnhof", "stop_id": 8100221, "coordinates": [16.89578, 48.540114], "country": "\u00d6sterreich"}, {"stop_name": "Ebenfurth Bahnhof", "stop_id": 8100225, "coordinates": [16.36251, 47.877623], "country": "\u00d6sterreich"}, {"stop_name": "Ebreichsdorf Bahnhof", "stop_id": 8100226, "coordinates": [16.408875, 47.9612], "country": "\u00d6sterreich"}, {"stop_name": "Eisenstadt Bahnhof", "stop_id": 8100231, "coordinates": [16.529778, 47.839581], "country": "\u00d6sterreich"}, {"stop_name": "Fischamend Bahnhof", "stop_id": 8100235, "coordinates": [16.615204000000002, 48.116521999999996], "country": "\u00d6sterreich"}, {"stop_name": "Wien Floridsdorf Bahnhof", "stop_id": 8100236, "coordinates": [16.399735, 48.255944], "country": "\u00d6sterreich"}, {"stop_name": "Frauenkirchen Bahnhof", "stop_id": 8100238, "coordinates": [16.915926000000002, 47.83995], "country": "\u00d6sterreich"}, {"stop_name": "Freistadt Bahnhof", "stop_id": 8100239, "coordinates": [14.481463, 48.495177000000005], "country": "\u00d6sterreich"}, {"stop_name": "Friedburg Bahnhof", "stop_id": 8100241, "coordinates": [13.234217999999998, 47.997019], "country": "\u00d6sterreich"}, {"stop_name": "Furth-G\u00f6ttweig Bahnhof", "stop_id": 8100244, "coordinates": [15.615781, 48.373195], "country": "\u00d6sterreich"}, {"stop_name": "G\u00e4nserndorf Bahnhof", "stop_id": 8100245, "coordinates": [16.732743, 48.340305], "country": "\u00d6sterreich"}, {"stop_name": "Gaisbach-Wartberg Bahnhof", "stop_id": 8100246, "coordinates": [14.506103, 48.330296000000004], "country": "\u00d6sterreich"}, {"stop_name": "Gars-Thunau Bahnhof", "stop_id": 8100247, "coordinates": [15.655123999999999, 48.597671000000005], "country": "\u00d6sterreich"}, {"stop_name": "Garsten Bahnhof", "stop_id": 8100248, "coordinates": [14.408320000000002, 48.023753], "country": "\u00d6sterreich"}, {"stop_name": "Wien Gersthof Bahnhof", "stop_id": 8100249, "coordinates": [16.32907, 48.230777], "country": "\u00d6sterreich"}, {"stop_name": "G\u00f6tzendorf/Leitha Bahnhof", "stop_id": 8100254, "coordinates": [16.587423, 48.025683], "country": "\u00d6sterreich"}, {"stop_name": "Gols Bahnhof", "stop_id": 8100255, "coordinates": [16.905471, 47.891588], "country": "\u00d6sterreich"}, {"stop_name": "Grafenstein Bahnhof", "stop_id": 8100256, "coordinates": [14.459582000000001, 46.618943], "country": "\u00d6sterreich"}, {"stop_name": "Greifenstein-Altenberg Bahnhof", "stop_id": 8100257, "coordinates": [16.239567, 48.344685], "country": "\u00d6sterreich"}, {"stop_name": "Gries am Brenner Bahnhof", "stop_id": 8100258, "coordinates": [11.485408999999999, 47.041546999999994], "country": "\u00d6sterreich"}, {"stop_name": "Schwechat Bahnhof", "stop_id": 8100259, "coordinates": [16.481522000000002, 48.143599], "country": "\u00d6sterreich"}, {"stop_name": "Gr\u00fcnau im Almtal Bahnhof", "stop_id": 8100261, "coordinates": [13.951457000000001, 47.853673], "country": "\u00d6sterreich"}, {"stop_name": "Gurten O\u00d6 Bahnhof", "stop_id": 8100263, "coordinates": [13.334605999999999, 48.243832], "country": "\u00d6sterreich"}, {"stop_name": "Hadersdorf/Kamp Bahnhof", "stop_id": 8100264, "coordinates": [15.714637, 48.446506], "country": "\u00d6sterreich"}, {"stop_name": "Haiding Bahnhof", "stop_id": 8100265, "coordinates": [13.974765, 48.209821000000005], "country": "\u00d6sterreich"}, {"stop_name": "Hainburg/Donau Personenbahnhof", "stop_id": 8100266, "coordinates": [16.939245, 48.148749], "country": "\u00d6sterreich"}, {"stop_name": "Hard-Fu\u00dfach Bahnhof", "stop_id": 8100267, "coordinates": [9.687941, 47.479807], "country": "\u00d6sterreich"}, {"stop_name": "Hatzendorf Bahnhof", "stop_id": 8100268, "coordinates": [16.003415, 46.979351], "country": "\u00d6sterreich"}, {"stop_name": "Wien Heiligenstadt Bahnhof", "stop_id": 8100269, "coordinates": [16.365467000000002, 48.248836], "country": "\u00d6sterreich"}, {"stop_name": "Hermagor Bahnhof", "stop_id": 8100270, "coordinates": [13.375739000000001, 46.626499], "country": "\u00d6sterreich"}, {"stop_name": "Wien Hernals Bahnhof", "stop_id": 8100271, "coordinates": [16.314653, 48.22319], "country": "\u00d6sterreich"}, {"stop_name": "Herzogenburg Bahnhof", "stop_id": 8100272, "coordinates": [15.696361999999999, 48.276546], "country": "\u00d6sterreich"}, {"stop_name": "H\u00f6tzelsdorf-Geras Bahnhof", "stop_id": 8100273, "coordinates": [15.670248, 48.742459999999994], "country": "\u00d6sterreich"}, {"stop_name": "Hollabrunn Bahnhof", "stop_id": 8100274, "coordinates": [16.072231, 48.563027000000005], "country": "\u00d6sterreich"}, {"stop_name": "Holzleithen am Hausruck Bahnhof", "stop_id": 8100276, "coordinates": [13.6066, 48.113541999999995], "country": "\u00d6sterreich"}, {"stop_name": "Horn N\u00d6 Bahnhof", "stop_id": 8100277, "coordinates": [15.672676999999998, 48.665874], "country": "\u00d6sterreich"}, {"stop_name": "Jois Bahnhof", "stop_id": 8100280, "coordinates": [16.790722, 47.95666], "country": "\u00d6sterreich"}, {"stop_name": "Kaltenbrunnen im Montafon Bahnhof", "stop_id": 8100282, "coordinates": [9.887897, 47.085482], "country": "\u00d6sterreich"}, {"stop_name": "Kammer-Sch\u00f6rfling Bahnhof", "stop_id": 8100283, "coordinates": [13.595324, 47.94849], "country": "\u00d6sterreich"}, {"stop_name": "Katzelsdorf/Leitha Bahnhof", "stop_id": 8100284, "coordinates": [16.266938, 47.792823], "country": "\u00d6sterreich"}, {"stop_name": "Kirchberg am Wagram Bahnhof", "stop_id": 8100288, "coordinates": [15.894294, 48.427504], "country": "\u00d6sterreich"}, {"stop_name": "Kirchbichl in Tirol Bahnhof", "stop_id": 8100290, "coordinates": [12.093898, 47.519715999999995], "country": "\u00d6sterreich"}, {"stop_name": "Korneuburg Bahnhof", "stop_id": 8100293, "coordinates": [16.328622, 48.343309999999995], "country": "\u00d6sterreich"}, {"stop_name": "Krems/Donau Bahnhof", "stop_id": 8100295, "coordinates": [15.604694, 48.408716], "country": "\u00d6sterreich"}, {"stop_name": "Wien Krottenbachstra\u00dfe Bahnhof", "stop_id": 8100297, "coordinates": [16.341081, 48.240066], "country": "\u00d6sterreich"}, {"stop_name": "Langenlois Bahnhof", "stop_id": 8100299, "coordinates": [15.686179000000001, 48.476803000000004], "country": "\u00d6sterreich"}, {"stop_name": "Langkampfen Bahnhof", "stop_id": 8100300, "coordinates": [12.109282, 47.545784000000005], "country": "\u00d6sterreich"}, {"stop_name": "Lauterach in Vlbg Bahnhof", "stop_id": 8100302, "coordinates": [9.724276, 47.477415], "country": "\u00d6sterreich"}, {"stop_name": "Liebenfels Bahnhst", "stop_id": 8100305, "coordinates": [14.292386800000001, 46.735941499999996], "country": "\u00d6sterreich"}, {"stop_name": "Spital am Pyhrn Bahnhof", "stop_id": 8100306, "coordinates": [14.347548000000002, 47.673140999999994], "country": "\u00d6sterreich"}, {"stop_name": "Stadt Rottenmann Bahnhof", "stop_id": 8100309, "coordinates": [14.367095999999998, 47.527276], "country": "\u00d6sterreich"}, {"stop_name": "Stans b.Schwaz Bahnhof", "stop_id": 8100310, "coordinates": [11.726811, 47.365528999999995], "country": "\u00d6sterreich"}, {"stop_name": "Statzendorf Bahnhof", "stop_id": 8100311, "coordinates": [15.632667999999999, 48.309102], "country": "\u00d6sterreich"}, {"stop_name": "Suben Bahnhof", "stop_id": 8100315, "coordinates": [13.43312, 48.402758], "country": "\u00d6sterreich"}, {"stop_name": "Summerau Bahnhof", "stop_id": 8100316, "coordinates": [14.448598, 48.557187], "country": "\u00d6sterreich"}, {"stop_name": "Tainach-Stein Bahnhof", "stop_id": 8100317, "coordinates": [14.544927, 46.616212], "country": "\u00d6sterreich"}, {"stop_name": "Takern-St.Margarethen Bahnhof", "stop_id": 8100318, "coordinates": [15.757852, 47.045659], "country": "\u00d6sterreich"}, {"stop_name": "Taufkirchen/Pram Bahnhof", "stop_id": 8100320, "coordinates": [13.522699, 48.406806], "country": "\u00d6sterreich"}, {"stop_name": "Ternberg Bahnhof", "stop_id": 8100322, "coordinates": [14.354984, 47.949189000000004], "country": "\u00d6sterreich"}, {"stop_name": "Terfens-Weer Bahnhof", "stop_id": 8100323, "coordinates": [11.634514999999999, 47.316008000000004], "country": "\u00d6sterreich"}, {"stop_name": "Thal/Drau Bahnhof", "stop_id": 8100324, "coordinates": [12.670696000000001, 46.784141], "country": "\u00d6sterreich"}, {"stop_name": "Traismauer Bahnhof", "stop_id": 8100325, "coordinates": [15.745586, 48.34793], "country": "\u00d6sterreich"}, {"stop_name": "Untereggendorf Bahnhof", "stop_id": 8100331, "coordinates": [16.321320999999998, 47.861352000000004], "country": "\u00d6sterreich"}, {"stop_name": "Gattendorf Bahnhst", "stop_id": 8100332, "coordinates": [16.981185999999997, 48.010634], "country": "\u00d6sterreich"}, {"stop_name": "Uttendorf-Helpfau Bahnhof", "stop_id": 8100333, "coordinates": [13.133459, 48.160779999999995], "country": "\u00d6sterreich"}, {"stop_name": "Vitis Bahnhof", "stop_id": 8100335, "coordinates": [15.173869, 48.753213], "country": "\u00d6sterreich"}, {"stop_name": "V\u00f6lkermarkt-K\u00fchnsdorf Bahnhof", "stop_id": 8100336, "coordinates": [14.629914999999999, 46.622068], "country": "\u00d6sterreich"}, {"stop_name": "Volders-Baumkirchen Bahnhof", "stop_id": 8100337, "coordinates": [11.563373, 47.29571], "country": "\u00d6sterreich"}, {"stop_name": "Wallern im Bgld Bahnhof", "stop_id": 8100341, "coordinates": [16.930521, 47.733456], "country": "\u00d6sterreich"}, {"stop_name": "Wampersdorf Bahnhof", "stop_id": 8100342, "coordinates": [16.416922, 47.930663], "country": "\u00d6sterreich"}, {"stop_name": "Weiden am See Bahnhst", "stop_id": 8100343, "coordinates": [16.8638152, 47.9257429], "country": "\u00d6sterreich"}, {"stop_name": "Weigelsdorf N\u00d6 Bahnhst", "stop_id": 8100344, "coordinates": [16.412807, 47.952093], "country": "\u00d6sterreich"}, {"stop_name": "Weizelsdorf Bahnhof", "stop_id": 8100347, "coordinates": [14.243756, 46.539476], "country": "\u00d6sterreich"}, {"stop_name": "Wien Praterstern Bahnhof", "stop_id": 8100349, "coordinates": [16.392154, 48.21908], "country": "\u00d6sterreich"}, {"stop_name": "Flughafen Wien Bahnhof", "stop_id": 8100353, "coordinates": [16.563102999999998, 48.121081], "country": "\u00d6sterreich"}, {"stop_name": "Wieselburg/Erlauf Bahnhof", "stop_id": 8100355, "coordinates": [15.142479000000002, 48.132146999999996], "country": "\u00d6sterreich"}, {"stop_name": "Wiesen-Sigle\u00df Bahnhof", "stop_id": 8100356, "coordinates": [16.369782, 47.753434000000006], "country": "\u00d6sterreich"}, {"stop_name": "Winden am See Bahnhof", "stop_id": 8100357, "coordinates": [16.759004, 47.946985999999995], "country": "\u00d6sterreich"}, {"stop_name": "Wolfsberg in Ktn Bahnhof", "stop_id": 8100359, "coordinates": [14.838417000000002, 46.842628999999995], "country": "\u00d6sterreich"}, {"stop_name": "Wolfsthal Bahnhof", "stop_id": 8100360, "coordinates": [17.006171, 48.135556], "country": "\u00d6sterreich"}, {"stop_name": "Wulkaprodersdorf Bahnhof", "stop_id": 8100361, "coordinates": [16.490621, 47.78926], "country": "\u00d6sterreich"}, {"stop_name": "Zellerndorf Bahnhof", "stop_id": 8100363, "coordinates": [15.968314999999999, 48.695201000000004], "country": "\u00d6sterreich"}, {"stop_name": "Braunau/Inn Bahnhof", "stop_id": 8100365, "coordinates": [13.0481315, 48.2591343], "country": "\u00d6sterreich"}, {"stop_name": "Brixen im Thale Bahnhof", "stop_id": 8100366, "coordinates": [12.26074, 47.449222999999996], "country": "\u00d6sterreich"}, {"stop_name": "F\u00fcrnitz Bahnhof", "stop_id": 8100368, "coordinates": [13.813637, 46.563167], "country": "\u00d6sterreich"}, {"stop_name": "Gramatneusiedl Bahnhof", "stop_id": 8100369, "coordinates": [16.491063, 48.035294], "country": "\u00d6sterreich"}, {"stop_name": "Gratwein-Gratkorn Bahnhof", "stop_id": 8100370, "coordinates": [15.323219, 47.129044], "country": "\u00d6sterreich"}, {"stop_name": "Graz Ostbahnhof-Messe Bahnhof", "stop_id": 8100371, "coordinates": [15.447963, 47.053828], "country": "\u00d6sterreich"}, {"stop_name": "Guntramsdorf Kaiserau Bahnhof", "stop_id": 8100372, "coordinates": [16.325103, 48.044317], "country": "\u00d6sterreich"}, {"stop_name": "Kittsee Bahnhof", "stop_id": 8100373, "coordinates": [17.071456, 48.081447999999995], "country": "\u00d6sterreich"}, {"stop_name": "Wien Kaiserebersdorf Bahnhof", "stop_id": 8100374, "coordinates": [16.465216, 48.145926], "country": "\u00d6sterreich"}, {"stop_name": "Moosbierbaum-Heiligeneich Bahnhof", "stop_id": 8100376, "coordinates": [15.901275, 48.305865999999995], "country": "\u00d6sterreich"}, {"stop_name": "Vandans Bahnhst", "stop_id": 8100380, "coordinates": [9.868825, 47.098757], "country": "\u00d6sterreich"}, {"stop_name": "Villach Warmbad Bahnhof", "stop_id": 8100382, "coordinates": [13.828453, 46.588312], "country": "\u00d6sterreich"}, {"stop_name": "Wartberg im M\u00fcrztal Bahnhof", "stop_id": 8100383, "coordinates": [15.483084, 47.527277000000005], "country": "\u00d6sterreich"}, {"stop_name": "Neudorf b.Parndorf Bahnhst", "stop_id": 8100388, "coordinates": [16.938281, 48.008853], "country": "\u00d6sterreich"}, {"stop_name": "Wolfurt Bahnhof", "stop_id": 8100389, "coordinates": [9.741032, 47.457116], "country": "\u00d6sterreich"}, {"stop_name": "Bleiburg Bahnhof", "stop_id": 8100393, "coordinates": [14.786539000000001, 46.574231], "country": "\u00d6sterreich"}, {"stop_name": "Wien Breitensee Bahnhst", "stop_id": 8100395, "coordinates": [16.306718, 48.197590999999996], "country": "\u00d6sterreich"}, {"stop_name": "Linz/Donau Urfahr Bahnhof", "stop_id": 8100396, "coordinates": [14.279798000000001, 48.312089], "country": "\u00d6sterreich"}, {"stop_name": "Breitenbrunn/Neusiedler See Bahnhof", "stop_id": 8100397, "coordinates": [16.746226, 47.941081], "country": "\u00d6sterreich"}, {"stop_name": "Loipersbach-Schattendorf Bahnhof", "stop_id": 8100398, "coordinates": [16.491863000000002, 47.700720000000004], "country": "\u00d6sterreich"}, {"stop_name": "Irnfritz Bahnhof", "stop_id": 8100399, "coordinates": [15.539506, 48.748465], "country": "\u00d6sterreich"}, {"stop_name": "Ried im Innkreis Bahnhof", "stop_id": 8100405, "coordinates": [13.488219, 48.20046], "country": "\u00d6sterreich"}, {"stop_name": "Riedau Bahnhof", "stop_id": 8100407, "coordinates": [13.626592, 48.304107], "country": "\u00d6sterreich"}, {"stop_name": "Mattersburg Bahnhof", "stop_id": 8100408, "coordinates": [16.408777, 47.735871], "country": "\u00d6sterreich"}, {"stop_name": "Mattighofen Bahnhof", "stop_id": 8100409, "coordinates": [13.152370000000001, 48.108665], "country": "\u00d6sterreich"}, {"stop_name": "Mauerkirchen Bahnhof", "stop_id": 8100410, "coordinates": [13.128848999999999, 48.191435999999996], "country": "\u00d6sterreich"}, {"stop_name": "Rosenburg/Kamp Bahnhof", "stop_id": 8100411, "coordinates": [15.643509, 48.628417999999996], "country": "\u00d6sterreich"}, {"stop_name": "Micheldorf in O\u00d6 Bahnhof", "stop_id": 8100412, "coordinates": [14.1264, 47.883131], "country": "\u00d6sterreich"}, {"stop_name": "Mauthausen O\u00d6 Bahnhof", "stop_id": 8100413, "coordinates": [14.532720999999999, 48.242878000000005], "country": "\u00d6sterreich"}, {"stop_name": "Sattledt Bahnhof", "stop_id": 8100416, "coordinates": [14.057989000000001, 48.074138], "country": "\u00d6sterreich"}, {"stop_name": "Mittewald/Drau Bahnhof", "stop_id": 8100417, "coordinates": [12.595148, 46.769594], "country": "\u00d6sterreich"}, {"stop_name": "Mittlern Bahnhst", "stop_id": 8100418, "coordinates": [14.7160256, 46.5985538], "country": "\u00d6sterreich"}, {"stop_name": "M\u00f6llbr\u00fccke-Sachsenburg Bahnhof", "stop_id": 8100419, "coordinates": [13.368062, 46.830795], "country": "\u00d6sterreich"}, {"stop_name": "Scharnstein-M\u00fchldorf Bahnhof", "stop_id": 8100420, "coordinates": [13.958927, 47.900604], "country": "\u00d6sterreich"}, {"stop_name": "Sch\u00fctzen am Gebirge Bahnhof", "stop_id": 8100422, "coordinates": [16.618961, 47.848143], "country": "\u00d6sterreich"}, {"stop_name": "M\u00fcnchendorf Bahnhof", "stop_id": 8100423, "coordinates": [16.38629, 48.03248], "country": "\u00d6sterreich"}, {"stop_name": "M\u00fcllendorf Bahnhof", "stop_id": 8100424, "coordinates": [16.459782, 47.834108], "country": "\u00d6sterreich"}, {"stop_name": "W\u00f6rschach Schwefelbad Bahnhof", "stop_id": 8100425, "coordinates": [14.139782, 47.545512], "country": "\u00d6sterreich"}, {"stop_name": "Seekirchen/Wallersee Bahnhof", "stop_id": 8100426, "coordinates": [13.130177999999999, 47.89946], "country": "\u00d6sterreich"}, {"stop_name": "S\u00f6chau Bahnhof", "stop_id": 8100429, "coordinates": [16.013886, 47.028677], "country": "\u00d6sterreich"}, {"stop_name": "Neufelden Bahnhof", "stop_id": 8100430, "coordinates": [14.005066000000001, 48.483707], "country": "\u00d6sterreich"}, {"stop_name": "St.Andr\u00e4/Zicksee Bahnhof", "stop_id": 8100431, "coordinates": [16.927985999999997, 47.782652], "country": "\u00d6sterreich"}, {"stop_name": "St.Andr\u00e4-W\u00f6rdern Bahnhof", "stop_id": 8100432, "coordinates": [16.209135, 48.333936], "country": "\u00d6sterreich"}, {"stop_name": "Neusiedl am See Bahnhof", "stop_id": 8100434, "coordinates": [16.824218, 47.956062], "country": "\u00d6sterreich"}, {"stop_name": "St.Martin im Innkreis Bahnhof", "stop_id": 8100437, "coordinates": [13.433709, 48.288825], "country": "\u00d6sterreich"}, {"stop_name": "Obereggendorf Bahnhof", "stop_id": 8100439, "coordinates": [16.297223000000002, 47.849882], "country": "\u00d6sterreich"}, {"stop_name": "St.Stefan im Lavanttal Bahnhof", "stop_id": 8100440, "coordinates": [14.846123, 46.806748999999996], "country": "\u00d6sterreich"}, {"stop_name": "Wien Oberd\u00f6bling Bahnhof", "stop_id": 8100441, "coordinates": [16.344266, 48.2444], "country": "\u00d6sterreich"}, {"stop_name": "Obernberg-Altheim Bahnhof", "stop_id": 8100442, "coordinates": [13.258268, 48.270439], "country": "\u00d6sterreich"}, {"stop_name": "Waidhofen/Ybbs Bahnhof", "stop_id": 8100445, "coordinates": [14.765341000000001, 47.968140000000005], "country": "\u00d6sterreich"}, {"stop_name": "Wien Franz-Josefs-Bahnhof", "stop_id": 8100446, "coordinates": [16.360998000000002, 48.226646], "country": "\u00d6sterreich"}, {"stop_name": "Wien H\u00fctteldorf Bahnhof", "stop_id": 8100447, "coordinates": [16.261117000000002, 48.197354], "country": "\u00d6sterreich"}, {"stop_name": "Pamhagen Bahnhof", "stop_id": 8100448, "coordinates": [16.903667499999997, 47.7043089], "country": "\u00d6sterreich"}, {"stop_name": "Wien Mitte-Landstra\u00dfe Bahnhof", "stop_id": 8100449, "coordinates": [16.384885999999998, 48.206095], "country": "\u00d6sterreich"}, {"stop_name": "Wien Penzing Bahnhof", "stop_id": 8100450, "coordinates": [16.30486, 48.192694], "country": "\u00d6sterreich"}, {"stop_name": "Zirl Bahnhof", "stop_id": 8100451, "coordinates": [11.229909, 47.265873], "country": "\u00d6sterreich"}, {"stop_name": "Neusiedl am See Bad Bahnhst", "stop_id": 8100453, "coordinates": [16.844337, 47.9428507], "country": "\u00d6sterreich"}, {"stop_name": "Bad Waltersdorf Bahnhof", "stop_id": 8100455, "coordinates": [16.013679999999997, 47.170274], "country": "\u00d6sterreich"}, {"stop_name": "Bernhardsthal Bahnhof", "stop_id": 8100457, "coordinates": [16.879142, 48.687791], "country": "\u00d6sterreich"}, {"stop_name": "Klosterneuburg Kierling Bahnhof", "stop_id": 8100460, "coordinates": [16.326280999999998, 48.309807], "country": "\u00d6sterreich"}, {"stop_name": "Losenstein Bahnhof", "stop_id": 8100463, "coordinates": [14.431087, 47.924056], "country": "\u00d6sterreich"}, {"stop_name": "Rattenberg-Kramsach Bahnhof", "stop_id": 8100465, "coordinates": [11.895953, 47.43922], "country": "\u00d6sterreich"}, {"stop_name": "Marchegg Bahnhof", "stop_id": 8100466, "coordinates": [16.918528, 48.249226], "country": "\u00d6sterreich"}, {"stop_name": "Retz Bahnhof", "stop_id": 8100469, "coordinates": [15.956904999999999, 48.753344], "country": "\u00d6sterreich"}, {"stop_name": "Maria Rain in Ktn Bahnhof", "stop_id": 8100470, "coordinates": [14.284324, 46.563726], "country": "\u00d6sterreich"}, {"stop_name": "Marz-Rohrbach Bahnhof", "stop_id": 8100472, "coordinates": [16.428752, 47.717616], "country": "\u00d6sterreich"}, {"stop_name": "Bregenz Riedenburg Bahnhof", "stop_id": 8100473, "coordinates": [9.721245, 47.493567999999996], "country": "\u00d6sterreich"}, {"stop_name": "Rohrbach-Berg Bahnhof", "stop_id": 8100474, "coordinates": [13.987067999999999, 48.58194], "country": "\u00d6sterreich"}, {"stop_name": "Rottenegg O\u00d6 Bahnhof", "stop_id": 8100476, "coordinates": [14.137548, 48.360195000000004], "country": "\u00d6sterreich"}, {"stop_name": "Rum b.Innsbruck Bahnhst", "stop_id": 8100477, "coordinates": [11.456057000000001, 47.278003000000005], "country": "\u00d6sterreich"}, {"stop_name": "Mining Bahnhof", "stop_id": 8100478, "coordinates": [13.171270000000002, 48.271312], "country": "\u00d6sterreich"}, {"stop_name": "Bad Sauerbrunn Bahnhof", "stop_id": 8100481, "coordinates": [16.324664000000002, 47.774078], "country": "\u00d6sterreich"}, {"stop_name": "Schaftenau Bahnhst", "stop_id": 8100483, "coordinates": [12.1253, 47.558775], "country": "\u00d6sterreich"}, {"stop_name": "M\u00f6nchhof-Halbturn Bahnhof", "stop_id": 8100484, "coordinates": [16.946883, 47.874677], "country": "\u00d6sterreich"}, {"stop_name": "Scheibbs Bahnhof", "stop_id": 8100485, "coordinates": [15.164285999999999, 48.005261], "country": "\u00d6sterreich"}, {"stop_name": "Sch\u00f6nberg/Kamp Bahnhof", "stop_id": 8100487, "coordinates": [15.696645000000002, 48.515495], "country": "\u00d6sterreich"}, {"stop_name": "M\u00fcnster-Wiesing Bahnhof", "stop_id": 8100488, "coordinates": [11.819988, 47.403445], "country": "\u00d6sterreich"}, {"stop_name": "Munderfing Bahnhof", "stop_id": 8100489, "coordinates": [13.180201, 48.073104], "country": "\u00d6sterreich"}, {"stop_name": "Mureck Bahnhof", "stop_id": 8100491, "coordinates": [15.770980999999999, 46.71132], "country": "\u00d6sterreich"}, {"stop_name": "Sigmundsherberg Bahnhof", "stop_id": 8100493, "coordinates": [15.745014999999999, 48.685701], "country": "\u00d6sterreich"}, {"stop_name": "Neud\u00f6rfl im Bgld Bahnhof", "stop_id": 8100494, "coordinates": [16.300575, 47.793784], "country": "\u00d6sterreich"}, {"stop_name": "Neufeld/Leitha Bahnhof", "stop_id": 8100495, "coordinates": [16.381268, 47.868469], "country": "\u00d6sterreich"}, {"stop_name": "St.Andr\u00e4 im Lavanttal Bahnhof", "stop_id": 8100496, "coordinates": [14.841576000000002, 46.76379], "country": "\u00d6sterreich"}, {"stop_name": "St.Anton im Montafon Bahnhof", "stop_id": 8100497, "coordinates": [9.866186, 47.1099], "country": "\u00d6sterreich"}, {"stop_name": "Nickelsdorf Bahnhof", "stop_id": 8100499, "coordinates": [17.086037, 47.942916], "country": "\u00d6sterreich"}, {"stop_name": "St.Paul im Lavanttal Bahnhof", "stop_id": 8100501, "coordinates": [14.867747, 46.706507], "country": "\u00d6sterreich"}, {"stop_name": "St.Martin-Sittich Bahnhof", "stop_id": 8100502, "coordinates": [14.152419, 46.732146], "country": "\u00d6sterreich"}, {"stop_name": "St.Nikola-Struden Bahnhof", "stop_id": 8100503, "coordinates": [14.909103, 48.233487], "country": "\u00d6sterreich"}, {"stop_name": "St.Urban/Ossiacher See Bahnhof", "stop_id": 8100506, "coordinates": [13.959508999999999, 46.674469], "country": "\u00d6sterreich"}, {"stop_name": "V\u00f6cklabruck Bahnhof", "stop_id": 8100507, "coordinates": [13.664076999999999, 48.009965], "country": "\u00d6sterreich"}, {"stop_name": "V\u00f6cklamarkt Bahnhof", "stop_id": 8100508, "coordinates": [13.489547, 47.998051000000004], "country": "\u00d6sterreich"}, {"stop_name": "Weyer/Enns Bahnhof", "stop_id": 8100511, "coordinates": [14.666994, 47.861563000000004], "country": "\u00d6sterreich"}, {"stop_name": "Wien Ottakring Bahnhof", "stop_id": 8100512, "coordinates": [16.311167, 48.211742], "country": "\u00d6sterreich"}, {"stop_name": "Ottensheim Bahnhof", "stop_id": 8100513, "coordinates": [14.177114000000001, 48.337787], "country": "\u00d6sterreich"}, {"stop_name": "Wien Meidling Bahnhof", "stop_id": 8100514, "coordinates": [16.333737, 48.174582], "country": "\u00d6sterreich"}, {"stop_name": "Parndorf Ort Bahnhof", "stop_id": 8100515, "coordinates": [16.851159, 47.992146000000005], "country": "\u00d6sterreich"}, {"stop_name": "Wr.Neustadt Hbf", "stop_id": 8100516, "coordinates": [16.233812, 47.811693], "country": "\u00d6sterreich"}, {"stop_name": "Windischgarsten Bahnhof", "stop_id": 8100517, "coordinates": [14.327339000000002, 47.715373], "country": "\u00d6sterreich"}, {"stop_name": "Zeltweg Bahnhof", "stop_id": 8100518, "coordinates": [14.74794, 47.189640999999995], "country": "\u00d6sterreich"}, {"stop_name": "Petronell-Carnuntum Bahnhof", "stop_id": 8100520, "coordinates": [16.867731, 48.1059], "country": "\u00d6sterreich"}, {"stop_name": "Pettenbach O\u00d6 Bahnhof", "stop_id": 8100521, "coordinates": [14.011505, 47.962149], "country": "\u00d6sterreich"}, {"stop_name": "Pill-Vomperbach Bahnhst", "stop_id": 8100524, "coordinates": [11.677005, 47.323851], "country": "\u00d6sterreich"}, {"stop_name": "Pottendorf-Landegg Bahnhof", "stop_id": 8100525, "coordinates": [16.396201, 47.905388], "country": "\u00d6sterreich"}, {"stop_name": "Pram-Haag Bahnhof", "stop_id": 8100526, "coordinates": [13.617073999999999, 48.231743], "country": "\u00d6sterreich"}, {"stop_name": "Pregarten Bahnhof", "stop_id": 8100528, "coordinates": [14.522314000000001, 48.355954], "country": "\u00d6sterreich"}, {"stop_name": "Pressegger See Bahnhof", "stop_id": 8100529, "coordinates": [13.436835, 46.631657000000004], "country": "\u00d6sterreich"}, {"stop_name": "P\u00fcrbach-Schrems Bahnhof", "stop_id": 8100531, "coordinates": [15.084437, 48.763596], "country": "\u00d6sterreich"}, {"stop_name": "Purbach/Neusiedler See Bahnhof", "stop_id": 8100532, "coordinates": [16.698613, 47.906316], "country": "\u00d6sterreich"}, {"stop_name": "Stockerau Bahnhof", "stop_id": 8100534, "coordinates": [16.213414, 48.382284999999996], "country": "\u00d6sterreich"}, {"stop_name": "Kefermarkt Bahnhof", "stop_id": 8100536, "coordinates": [14.538116, 48.436899], "country": "\u00d6sterreich"}, {"stop_name": "Maria Ellend/Donau Bahnhof", "stop_id": 8100537, "coordinates": [16.688129999999997, 48.109737], "country": "\u00d6sterreich"}, {"stop_name": "Bad Deutsch-Altenburg Bahnhof", "stop_id": 8100538, "coordinates": [16.910757, 48.132767], "country": "\u00d6sterreich"}, {"stop_name": "Werfen Bahnhof", "stop_id": 8100539, "coordinates": [13.195197, 47.472913], "country": "\u00d6sterreich"}, {"stop_name": "Pama Bahnhof", "stop_id": 8100543, "coordinates": [17.041397, 48.042083], "country": "\u00d6sterreich"}, {"stop_name": "Wernstein/Inn Bahnhof", "stop_id": 8100544, "coordinates": [13.458128599999998, 48.507027], "country": "\u00d6sterreich"}, {"stop_name": "Kuchl Bahnhof", "stop_id": 8100546, "coordinates": [13.141570000000002, 47.625696999999995], "country": "\u00d6sterreich"}, {"stop_name": "Innsbruck Allerheiligenh\u00f6fe Bahnhof", "stop_id": 8100548, "coordinates": [11.353089, 47.269069], "country": "\u00d6sterreich"}, {"stop_name": "Gie\u00dfenbach in Tirol Bahnhof", "stop_id": 8100549, "coordinates": [11.237102, 47.375275], "country": "\u00d6sterreich"}, {"stop_name": "Kranebitten Bahnhst", "stop_id": 8100551, "coordinates": [11.328694, 47.269621], "country": "\u00d6sterreich"}, {"stop_name": "Leithen b.Seefeld Bahnhof", "stop_id": 8100554, "coordinates": [11.222563000000001, 47.29061], "country": "\u00d6sterreich"}, {"stop_name": "Salzburg Gnigl Bahnhof", "stop_id": 8100559, "coordinates": [13.066409, 47.811725], "country": "\u00d6sterreich"}, {"stop_name": "Fels am Wagram Bahnhof", "stop_id": 8100568, "coordinates": [15.822857, 48.429], "country": "\u00d6sterreich"}, {"stop_name": "Gro\u00dfendorf Bahnhof", "stop_id": 8100570, "coordinates": [14.05565, 48.038688], "country": "\u00d6sterreich"}, {"stop_name": "Gutenstein Bahnhof", "stop_id": 8100571, "coordinates": [15.910859, 47.876946000000004], "country": "\u00d6sterreich"}, {"stop_name": "Micheldorf-Hirt Bahnhof", "stop_id": 8100573, "coordinates": [14.431510000000001, 46.914322999999996], "country": "\u00d6sterreich"}, {"stop_name": "Marktl/Traisen Bahnhof", "stop_id": 8100576, "coordinates": [15.600067000000001, 48.021536], "country": "\u00d6sterreich"}, {"stop_name": "Oed/Piesting Bahnhst", "stop_id": 8100579, "coordinates": [16.0255766, 47.878606299999994], "country": "\u00d6sterreich"}, {"stop_name": "Perg Bahnhof", "stop_id": 8100580, "coordinates": [14.627501, 48.247545], "country": "\u00d6sterreich"}, {"stop_name": "P\u00fcrgg Bahnhst", "stop_id": 8100582, "coordinates": [14.064623000000001, 47.528639], "country": "\u00d6sterreich"}, {"stop_name": "Schl\u00fc\u00dflberg Bahnhof", "stop_id": 8100584, "coordinates": [13.868529, 48.223813], "country": "\u00d6sterreich"}, {"stop_name": "Wartberg ob der Aist Schloss Haus Bahnhof", "stop_id": 8100585, "coordinates": [14.505375, 48.341682], "country": "\u00d6sterreich"}, {"stop_name": "Silz in Tirol Bahnhof", "stop_id": 8100586, "coordinates": [10.936651, 47.270171999999995], "country": "\u00d6sterreich"}, {"stop_name": "Schl\u00f6glm\u00fchl Bahnhof", "stop_id": 8100587, "coordinates": [15.91431, 47.682528999999995], "country": "\u00d6sterreich"}, {"stop_name": "Stams Bahnhof", "stop_id": 8100589, "coordinates": [10.979897, 47.281896], "country": "\u00d6sterreich"}, {"stop_name": "St\u00fcbing Bahnhof", "stop_id": 8100590, "coordinates": [15.32245, 47.177548], "country": "\u00d6sterreich"}, {"stop_name": "Silberwald Bahnhst", "stop_id": 8100591, "coordinates": [16.678341, 48.328317999999996], "country": "\u00d6sterreich"}, {"stop_name": "Werndorf Bahnhof", "stop_id": 8100593, "coordinates": [15.476977, 46.916367], "country": "\u00d6sterreich"}, {"stop_name": "K\u00f6stendorf b.Salzburg Weng Bahnhst", "stop_id": 8100594, "coordinates": [13.175408, 47.936772], "country": "\u00d6sterreich"}, {"stop_name": "Aich-Assach Bahnhof", "stop_id": 8100597, "coordinates": [13.820756, 47.420401], "country": "\u00d6sterreich"}, {"stop_name": "Aschbach N\u00d6 Bahnhof", "stop_id": 8100600, "coordinates": [14.756360999999998, 48.069657], "country": "\u00d6sterreich"}, {"stop_name": "Flughafen Graz-Feldkirchen Bahnhof", "stop_id": 8100601, "coordinates": [15.449591, 46.997729], "country": "\u00d6sterreich"}, {"stop_name": "Achenlohe Bahnhof", "stop_id": 8100602, "coordinates": [13.197801, 48.04585], "country": "\u00d6sterreich"}, {"stop_name": "Aisthofen Bahnhof", "stop_id": 8100609, "coordinates": [14.590364000000001, 48.256240000000005], "country": "\u00d6sterreich"}, {"stop_name": "Aich im Jauntal Bahnhof", "stop_id": 8100611, "coordinates": [14.811410999999998, 46.630146999999994], "country": "\u00d6sterreich"}, {"stop_name": "Allerheiligen-M\u00fcrzhofen Bahnhof", "stop_id": 8100613, "coordinates": [15.402903, 47.481997], "country": "\u00d6sterreich"}, {"stop_name": "Angern/March Bahnhof", "stop_id": 8100619, "coordinates": [16.825914, 48.384376], "country": "\u00d6sterreich"}, {"stop_name": "Arbing Bahnhof", "stop_id": 8100622, "coordinates": [14.701129000000002, 48.226865999999994], "country": "\u00d6sterreich"}, {"stop_name": "Ardning Bahnhof", "stop_id": 8100623, "coordinates": [14.358853, 47.590573], "country": "\u00d6sterreich"}, {"stop_name": "Ansfelden Bahnhof", "stop_id": 8100626, "coordinates": [14.2611, 48.208904], "country": "\u00d6sterreich"}, {"stop_name": "Altach Bahnhof", "stop_id": 8100630, "coordinates": [9.661242, 47.352128], "country": "\u00d6sterreich"}, {"stop_name": "Wien Atzgersdorf Bahnhof", "stop_id": 8100634, "coordinates": [16.288575, 48.146952], "country": "\u00d6sterreich"}, {"stop_name": "Altenstadt (Feldkirch) Bahnhof", "stop_id": 8100635, "coordinates": [9.615388, 47.256263], "country": "\u00d6sterreich"}, {"stop_name": "Atzenbrugg Bahnhof", "stop_id": 8100637, "coordinates": [15.918476, 48.296966], "country": "\u00d6sterreich"}, {"stop_name": "Aurolzm\u00fcnster Bahnhof", "stop_id": 8100638, "coordinates": [13.458022, 48.249058000000005], "country": "\u00d6sterreich"}, {"stop_name": "Aurachkirchen Bahnhof", "stop_id": 8100639, "coordinates": [13.745382999999999, 47.968052], "country": "\u00d6sterreich"}, {"stop_name": "Ausschlag-Z\u00f6bern Bahnhof", "stop_id": 8100642, "coordinates": [16.083215, 47.533059], "country": "\u00d6sterreich"}, {"stop_name": "Berndorf/Triesting Fabrik Bahnhof", "stop_id": 8100650, "coordinates": [16.133786999999998, 47.940259000000005], "country": "\u00d6sterreich"}, {"stop_name": "Berndorf/Triesting Stadt Bahnhof", "stop_id": 8100652, "coordinates": [16.108686, 47.944821999999995], "country": "\u00d6sterreich"}, {"stop_name": "Bad Fischau-Brunn Bahnhof", "stop_id": 8100653, "coordinates": [16.173144, 47.826812], "country": "\u00d6sterreich"}, {"stop_name": "Bad Fischau Bahnhof", "stop_id": 8100655, "coordinates": [16.171518, 47.83139], "country": "\u00d6sterreich"}, {"stop_name": "Baumgartenberg Bahnhof", "stop_id": 8100656, "coordinates": [14.747672, 48.208715000000005], "country": "\u00d6sterreich"}, {"stop_name": "Berg im Drautal Bahnhof", "stop_id": 8100657, "coordinates": [13.127759, 46.742398], "country": "\u00d6sterreich"}, {"stop_name": "B\u00f6heimkirchen Bahnhof", "stop_id": 8100661, "coordinates": [15.753664, 48.200418], "country": "\u00d6sterreich"}, {"stop_name": "Bad Blumau Bahnhof", "stop_id": 8100663, "coordinates": [16.056581, 47.123371999999996], "country": "\u00d6sterreich"}, {"stop_name": "Bludenz-Moos Bahnhof", "stop_id": 8100667, "coordinates": [9.830983, 47.142241], "country": "\u00d6sterreich"}, {"stop_name": "Bleiburg Stadt Bahnhof", "stop_id": 8100668, "coordinates": [14.794119, 46.590068], "country": "\u00d6sterreich"}, {"stop_name": "Blindenmarkt b.Amstetten Bahnhof", "stop_id": 8100669, "coordinates": [14.979603, 48.125077000000005], "country": "\u00d6sterreich"}, {"stop_name": "Bad Mitterndorf-Heilbrunn Bahnhof", "stop_id": 8100672, "coordinates": [13.925460999999999, 47.551079], "country": "\u00d6sterreich"}, {"stop_name": "Bad Radkersburg Bahnhof", "stop_id": 8100677, "coordinates": [15.993411499999999, 46.699479700000005], "country": "\u00d6sterreich"}, {"stop_name": "Ried im Innkreis Bad Bahnhof", "stop_id": 8100678, "coordinates": [13.477582, 48.212314], "country": "\u00d6sterreich"}, {"stop_name": "Bergern am Hausruck Bahnhof", "stop_id": 8100681, "coordinates": [13.63129, 48.100865], "country": "\u00d6sterreich"}, {"stop_name": "Breiteneich b.Horn Bahnhst", "stop_id": 8100682, "coordinates": [15.688128, 48.671979], "country": "\u00d6sterreich"}, {"stop_name": "Bisamberg Bahnhof", "stop_id": 8100689, "coordinates": [16.347268, 48.316323], "country": "\u00d6sterreich"}, {"stop_name": "Wien Br\u00fcnner Stra\u00dfe Bahnhof", "stop_id": 8100691, "coordinates": [16.403585999999997, 48.267789], "country": "\u00d6sterreich"}, {"stop_name": "Breitenstein am Semmering Bahnhof", "stop_id": 8100692, "coordinates": [15.820529, 47.660067], "country": "\u00d6sterreich"}, {"stop_name": "Breitensee b.Marchegg Bahnhst", "stop_id": 8100693, "coordinates": [16.877634, 48.254773], "country": "\u00d6sterreich"}, {"stop_name": "Breitensch\u00fctzing Bahnhof", "stop_id": 8100695, "coordinates": [13.800821, 48.078681], "country": "\u00d6sterreich"}, {"stop_name": "Brunn-Maria Enzersdorf Bahnhof", "stop_id": 8100698, "coordinates": [16.288062, 48.104957], "country": "\u00d6sterreich"}, {"stop_name": "Bludenz Brunnenfeld-Stallehr Bahnhof", "stop_id": 8100699, "coordinates": [9.838922, 47.136298], "country": "\u00d6sterreich"}, {"stop_name": "Buchberg/Kamp Bahnhof", "stop_id": 8100700, "coordinates": [15.658781, 48.575813000000004], "country": "\u00d6sterreich"}, {"stop_name": "Brunn/Pitten Bahnhof", "stop_id": 8100705, "coordinates": [16.188288, 47.72255], "country": "\u00d6sterreich"}, {"stop_name": "Brunn/Schneebergbahn Bahnhst", "stop_id": 8100706, "coordinates": [16.1572462, 47.8256032], "country": "\u00d6sterreich"}, {"stop_name": "Bad V\u00f6slau Bahnhof", "stop_id": 8100708, "coordinates": [16.224076999999998, 47.969479], "country": "\u00d6sterreich"}, {"stop_name": "Breitenwaida Bahnhof", "stop_id": 8100710, "coordinates": [16.07488, 48.51493], "country": "\u00d6sterreich"}, {"stop_name": "B\u00f6hlerwerk Bahnhof", "stop_id": 8100713, "coordinates": [14.754057999999999, 47.983084000000005], "country": "\u00d6sterreich"}, {"stop_name": "Dorf/Enns Bahnhof", "stop_id": 8100716, "coordinates": [14.473089000000002, 48.091446000000005], "country": "\u00d6sterreich"}, {"stop_name": "Deutschkreutz Bahnhof", "stop_id": 8100719, "coordinates": [16.619682, 47.603867], "country": "\u00d6sterreich"}, {"stop_name": "Deutsch Wagram Bahnhof", "stop_id": 8100721, "coordinates": [16.564101, 48.303015], "country": "\u00d6sterreich"}, {"stop_name": "Dechantskirchen Bahnhof", "stop_id": 8100722, "coordinates": [16.021935, 47.418588], "country": "\u00d6sterreich"}, {"stop_name": "D\u00fcrnkrut Bahnhof", "stop_id": 8100724, "coordinates": [16.860112, 48.469766], "country": "\u00d6sterreich"}, {"stop_name": "Dornach b.Grein Bahnhof", "stop_id": 8100727, "coordinates": [14.820072, 48.191872], "country": "\u00d6sterreich"}, {"stop_name": "Dornbirn Schoren Bahnhof", "stop_id": 8100728, "coordinates": [9.726295, 47.412994], "country": "\u00d6sterreich"}, {"stop_name": "Dreistetten Bahnhof", "stop_id": 8100731, "coordinates": [16.110139, 47.872488], "country": "\u00d6sterreich"}, {"stop_name": "Dietrichshofen Bahnhof", "stop_id": 8100732, "coordinates": [13.422087, 48.370028000000005], "country": "\u00d6sterreich"}, {"stop_name": "D\u00fcrnbach/Enns Bahnhof", "stop_id": 8100733, "coordinates": [14.353839, 47.978353000000006], "country": "\u00d6sterreich"}, {"stop_name": "D\u00fcrnberg b.Ottensheim Bahnhst", "stop_id": 8100734, "coordinates": [14.192348, 48.331482], "country": "\u00d6sterreich"}, {"stop_name": "D\u00fcrrwien Bahnhof", "stop_id": 8100735, "coordinates": [16.061761999999998, 48.178438], "country": "\u00d6sterreich"}, {"stop_name": "Eichberg am Semmering Bahnhof", "stop_id": 8100736, "coordinates": [15.911097, 47.672179], "country": "\u00d6sterreich"}, {"stop_name": "Eberschwang Bahnhof", "stop_id": 8100740, "coordinates": [13.536675, 48.151799], "country": "\u00d6sterreich"}, {"stop_name": "Emmersdorf im Gailtal Bahnhof", "stop_id": 8100745, "coordinates": [13.572663, 46.595308], "country": "\u00d6sterreich"}, {"stop_name": "Etsdorf-Stra\u00df Bahnhof", "stop_id": 8100746, "coordinates": [15.730331, 48.453086], "country": "\u00d6sterreich"}, {"stop_name": "Ernsthofen Bahnhof", "stop_id": 8100747, "coordinates": [14.480016, 48.126554], "country": "\u00d6sterreich"}, {"stop_name": "Eichgraben-Altlengbach Bahnhof", "stop_id": 8100749, "coordinates": [15.982009, 48.173744], "country": "\u00d6sterreich"}, {"stop_name": "Wien Erzherzog-Karl-Stra\u00dfe Bahnhst", "stop_id": 8100756, "coordinates": [16.453234, 48.229838], "country": "\u00d6sterreich"}, {"stop_name": "Enzesfeld-Lindabrunn Bahnhof", "stop_id": 8100757, "coordinates": [16.187444, 47.9213], "country": "\u00d6sterreich"}, {"stop_name": "Ennsdorf Bahnhof", "stop_id": 8100759, "coordinates": [14.496089000000001, 48.216502], "country": "\u00d6sterreich"}, {"stop_name": "Ehrenhausen an der Weinstra\u00dfe Bahnhof", "stop_id": 8100763, "coordinates": [15.585574, 46.727664000000004], "country": "\u00d6sterreich"}, {"stop_name": "Erlauf Bahnhof", "stop_id": 8100764, "coordinates": [15.182099, 48.183806], "country": "\u00d6sterreich"}, {"stop_name": "Ebensee Landungsplatz Bahnhof", "stop_id": 8100766, "coordinates": [13.774516, 47.812734999999996], "country": "\u00d6sterreich"}, {"stop_name": "Eschenau/Salzach Bahnhof", "stop_id": 8100770, "coordinates": [13.008407, 47.306789], "country": "\u00d6sterreich"}, {"stop_name": "Elsbethen Bahnhof", "stop_id": 8100772, "coordinates": [13.080354, 47.760929], "country": "\u00d6sterreich"}, {"stop_name": "Eisenstadt Schule Bahnhof", "stop_id": 8100773, "coordinates": [16.536562, 47.843825], "country": "\u00d6sterreich"}, {"stop_name": "Eugendorf Bahnhof", "stop_id": 8100774, "coordinates": [13.116979999999998, 47.873475], "country": "\u00d6sterreich"}, {"stop_name": "Enzersdorf b.Staatz Bahnhof", "stop_id": 8100775, "coordinates": [16.511023, 48.6728], "country": "\u00d6sterreich"}, {"stop_name": "Felixdorf Bahnhof", "stop_id": 8100780, "coordinates": [16.248057, 47.887295], "country": "\u00d6sterreich"}, {"stop_name": "Ferndorf in Ktn Bahnhof", "stop_id": 8100781, "coordinates": [13.628537, 46.732887], "country": "\u00d6sterreich"}, {"stop_name": "Fentsch-St.Lorenzen Bahnhof", "stop_id": 8100783, "coordinates": [14.892957000000001, 47.251727], "country": "\u00d6sterreich"}, {"stop_name": "Feuerwerksanstalt Bahnhof", "stop_id": 8100784, "coordinates": [16.189320000000002, 47.848838], "country": "\u00d6sterreich"}, {"stop_name": "Finkenstein Bahnhst", "stop_id": 8100788, "coordinates": [13.867885000000001, 46.568832], "country": "\u00d6sterreich"}, {"stop_name": "Feldkirch Amberg Bahnhof", "stop_id": 8100791, "coordinates": [9.621365, 47.255385], "country": "\u00d6sterreich"}, {"stop_name": "Flaurling Bahnhof", "stop_id": 8100795, "coordinates": [11.143075, 47.288984], "country": "\u00d6sterreich"}, {"stop_name": "Wien Siemensstra\u00dfe Bahnhof", "stop_id": 8100796, "coordinates": [16.420203, 48.270747], "country": "\u00d6sterreich"}, {"stop_name": "F\u00f6derlach Bahnhof", "stop_id": 8100797, "coordinates": [13.958998000000001, 46.602112], "country": "\u00d6sterreich"}, {"stop_name": "Linz/Donau Franckstra\u00dfe Bahnhof", "stop_id": 8100807, "coordinates": [14.323542999999999, 48.285934000000005], "country": "\u00d6sterreich"}, {"stop_name": "Fr\u00e4ttingsdorf Bahnhof", "stop_id": 8100808, "coordinates": [16.512179999999997, 48.643427], "country": "\u00d6sterreich"}, {"stop_name": "Furth-Palt Bahnhof", "stop_id": 8100813, "coordinates": [15.606017999999999, 48.384482], "country": "\u00d6sterreich"}, {"stop_name": "Furth b.Mattighofen Bahnhof", "stop_id": 8100814, "coordinates": [13.139849, 48.131904], "country": "\u00d6sterreich"}, {"stop_name": "Gaishorn am See Bahnhof", "stop_id": 8100819, "coordinates": [14.546567999999999, 47.489086], "country": "\u00d6sterreich"}, {"stop_name": "Gaisruck b.Stockerau Bahnhof", "stop_id": 8100823, "coordinates": [16.064534, 48.394128], "country": "\u00d6sterreich"}, {"stop_name": "Grein-Bad Kreuzen Bahnhof", "stop_id": 8100826, "coordinates": [14.851219, 48.220677], "country": "\u00d6sterreich"}, {"stop_name": "G\u00f6llersdorf Bahnhof", "stop_id": 8100827, "coordinates": [16.126634, 48.492468], "country": "\u00d6sterreich"}, {"stop_name": "Gedersdorf Bahnhst", "stop_id": 8100828, "coordinates": [15.690339999999999, 48.431909999999995], "country": "\u00d6sterreich"}, {"stop_name": "Geinberg Bahnhof", "stop_id": 8100830, "coordinates": [13.291179000000001, 48.266315999999996], "country": "\u00d6sterreich"}, {"stop_name": "Gemeinlebarn Bahnhof", "stop_id": 8100831, "coordinates": [15.805055, 48.335965], "country": "\u00d6sterreich"}, {"stop_name": "Getzersdorf ob der Traisen Bahnhof", "stop_id": 8100834, "coordinates": [15.715303, 48.324093], "country": "\u00d6sterreich"}, {"stop_name": "Greinsfurth Bahnhof", "stop_id": 8100836, "coordinates": [14.838529999999999, 48.10796], "country": "\u00d6sterreich"}, {"stop_name": "Gisingen (Feldkirch) Bahnhof", "stop_id": 8100842, "coordinates": [9.597813, 47.25542], "country": "\u00d6sterreich"}, {"stop_name": "Gunskirchen Bahnhof", "stop_id": 8100845, "coordinates": [13.945414999999999, 48.132128], "country": "\u00d6sterreich"}, {"stop_name": "Guntramsdorf Thallern Bahnhof", "stop_id": 8100846, "coordinates": [16.297485, 48.051919], "country": "\u00d6sterreich"}, {"stop_name": "Gr\u00fcnbach am Schneeberg Kohlenwerk Bahnhof", "stop_id": 8100847, "coordinates": [15.971875, 47.798162], "country": "\u00d6sterreich"}, {"stop_name": "Glandorf b.St.Veit Bahnhof", "stop_id": 8100849, "coordinates": [14.381122, 46.749927], "country": "\u00d6sterreich"}, {"stop_name": "Glanegg in Ktn Bahnhof", "stop_id": 8100850, "coordinates": [14.210657999999999, 46.716504], "country": "\u00d6sterreich"}, {"stop_name": "Glei\u00dfenfeld Bahnhst", "stop_id": 8100851, "coordinates": [16.128757, 47.679226], "country": "\u00d6sterreich"}, {"stop_name": "Glinzendorf Bahnhst", "stop_id": 8100852, "coordinates": [16.639491, 48.242102], "country": "\u00d6sterreich"}, {"stop_name": "Gniebing Bahnhof", "stop_id": 8100857, "coordinates": [15.853168, 46.961828000000004], "country": "\u00d6sterreich"}, {"stop_name": "Grein Stadt Bahnhof", "stop_id": 8100858, "coordinates": [14.856036999999999, 48.230045000000004], "country": "\u00d6sterreich"}, {"stop_name": "Gobelsburg Bahnhof", "stop_id": 8100859, "coordinates": [15.701621, 48.462404], "country": "\u00d6sterreich"}, {"stop_name": "G\u00f6dersdorf b.Villach Bahnhof", "stop_id": 8100861, "coordinates": [13.846870999999998, 46.568386], "country": "\u00d6sterreich"}, {"stop_name": "G\u00f6rtschach-F\u00f6rolach Bahnhst", "stop_id": 8100862, "coordinates": [13.470811999999999, 46.623158000000004], "country": "\u00d6sterreich"}, {"stop_name": "Bad Goisern Jodschwefelbad Bahnhof", "stop_id": 8100863, "coordinates": [13.608799, 47.658345700000005], "country": "\u00d6sterreich"}, {"stop_name": "Gopperding Bahnhof", "stop_id": 8100864, "coordinates": [13.458418, 48.440829], "country": "\u00d6sterreich"}, {"stop_name": "Gumpoldskirchen Bahnhof", "stop_id": 8100867, "coordinates": [16.284944, 48.040959], "country": "\u00d6sterreich"}, {"stop_name": "Gerasdorf b.Wien Bahnhof", "stop_id": 8100869, "coordinates": [16.48374, 48.293344], "country": "\u00d6sterreich"}, {"stop_name": "Gro\u00dframing Bahnhof", "stop_id": 8100876, "coordinates": [14.551067000000002, 47.882222999999996], "country": "\u00d6sterreich"}, {"stop_name": "Granitztal Bahnhof", "stop_id": 8100877, "coordinates": [14.838229, 46.68513], "country": "\u00d6sterreich"}, {"stop_name": "Gerling O\u00d6 Bahnhst", "stop_id": 8100878, "coordinates": [14.077077, 48.397296999999995], "country": "\u00d6sterreich"}, {"stop_name": "Gerling im Pinzgau Bahnhof", "stop_id": 8100879, "coordinates": [12.827275, 47.390190999999994], "country": "\u00d6sterreich"}, {"stop_name": "Gr\u00fcnbach am Schneeberg Bahnhof", "stop_id": 8100882, "coordinates": [15.997907000000001, 47.797470000000004], "country": "\u00d6sterreich"}, {"stop_name": "Gosdorf Bahnhof", "stop_id": 8100886, "coordinates": [15.797607999999999, 46.724427], "country": "\u00d6sterreich"}, {"stop_name": "Gro\u00dfsierning Bahnhof", "stop_id": 8100890, "coordinates": [15.457643, 48.188088], "country": "\u00d6sterreich"}, {"stop_name": "Gries im Pinzgau Bahnhof", "stop_id": 8100892, "coordinates": [12.890628999999999, 47.288047999999996], "country": "\u00d6sterreich"}, {"stop_name": "Guntersdorf Bahnhof", "stop_id": 8100894, "coordinates": [16.053631, 48.642283], "country": "\u00d6sterreich"}, {"stop_name": "Gro\u00dfweikersdorf Bahnhof", "stop_id": 8100906, "coordinates": [15.976197, 48.469053], "country": "\u00d6sterreich"}, {"stop_name": "Grieswirt Bahnhof", "stop_id": 8100907, "coordinates": [12.467862, 47.509438], "country": "\u00d6sterreich"}, {"stop_name": "Hagenau im Innkreis Bahnhof", "stop_id": 8100914, "coordinates": [13.114294000000001, 48.265178000000006], "country": "\u00d6sterreich"}, {"stop_name": "Halbenrain Bahnhof", "stop_id": 8100916, "coordinates": [15.948863000000001, 46.723825], "country": "\u00d6sterreich"}, {"stop_name": "Wien Hirschstetten Bahnhst", "stop_id": 8100918, "coordinates": [16.469076, 48.232721999999995], "country": "\u00d6sterreich"}, {"stop_name": "Wien Haidestra\u00dfe Bahnhof", "stop_id": 8100920, "coordinates": [16.426205, 48.178744], "country": "\u00d6sterreich"}, {"stop_name": "Hatlerdorf (Dornbirn) Bahnhof", "stop_id": 8100921, "coordinates": [9.724884, 47.398084000000004], "country": "\u00d6sterreich"}, {"stop_name": "Wien Hadersdorf Bahnhof", "stop_id": 8100922, "coordinates": [16.223315, 48.210365], "country": "\u00d6sterreich"}, {"stop_name": "Hennersdorf b.Wien Bahnhof", "stop_id": 8100925, "coordinates": [16.35857, 48.112651], "country": "\u00d6sterreich"}, {"stop_name": "Hallstatt Bahnhof", "stop_id": 8100926, "coordinates": [13.662091, 47.567702000000004], "country": "\u00d6sterreich"}, {"stop_name": "Helmahof Bahnhst", "stop_id": 8100928, "coordinates": [16.597663, 48.310454], "country": "\u00d6sterreich"}, {"stop_name": "Hallwang-Elixhausen Bahnhof", "stop_id": 8100929, "coordinates": [13.091262, 47.857756], "country": "\u00d6sterreich"}, {"stop_name": "Wien Hetzendorf Bahnhof", "stop_id": 8100935, "coordinates": [16.315267000000002, 48.166688], "country": "\u00d6sterreich"}, {"stop_name": "Hetzmannsdorf-Wullersdorf Bahnhof", "stop_id": 8100936, "coordinates": [16.091701, 48.616979], "country": "\u00d6sterreich"}, {"stop_name": "Hofstatt/Anzbach Bahnhof", "stop_id": 8100937, "coordinates": [15.918384, 48.191936], "country": "\u00d6sterreich"}, {"stop_name": "Hopfgarten im Brixental Berglift Bahnhof", "stop_id": 8100939, "coordinates": [12.158927, 47.446731], "country": "\u00d6sterreich"}, {"stop_name": "Hohenbrugg/Raab Bahnhof", "stop_id": 8100945, "coordinates": [16.060325, 46.944245], "country": "\u00d6sterreich"}, {"stop_name": "Hart im Innkreis Bahnhof", "stop_id": 8100948, "coordinates": [13.415211, 48.316041999999996], "country": "\u00d6sterreich"}, {"stop_name": "Hilm-Kematen Bahnhof", "stop_id": 8100949, "coordinates": [14.761735999999999, 48.022531], "country": "\u00d6sterreich"}, {"stop_name": "Himberg b.Wien Bahnhof", "stop_id": 8100950, "coordinates": [16.445051, 48.082284], "country": "\u00d6sterreich"}, {"stop_name": "Hirschbach b.Gm\u00fcnd Bahnhof", "stop_id": 8100953, "coordinates": [15.127188, 48.749241], "country": "\u00d6sterreich"}, {"stop_name": "Haiming in Tirol Bahnhof", "stop_id": 8100956, "coordinates": [10.890363, 47.253424], "country": "\u00d6sterreich"}, {"stop_name": "Hainfeld N\u00d6 Bahnhof", "stop_id": 8100957, "coordinates": [15.768591, 48.039364], "country": "\u00d6sterreich"}, {"stop_name": "Hainburg/Donau Kulturfabrik Bahnhof", "stop_id": 8100958, "coordinates": [16.932206, 48.144843], "country": "\u00d6sterreich"}, {"stop_name": "Hainburg/Donau Ungartor Bahnhof", "stop_id": 8100959, "coordinates": [16.948062, 48.148325], "country": "\u00d6sterreich"}, {"stop_name": "H\u00f6flein/Donau Bahnhof", "stop_id": 8100961, "coordinates": [16.271811, 48.35006], "country": "\u00d6sterreich"}, {"stop_name": "H\u00f6bersdorf Bahnhof", "stop_id": 8100962, "coordinates": [16.173101000000003, 48.448287], "country": "\u00d6sterreich"}, {"stop_name": "H\u00f6rersdorf Bahnhof", "stop_id": 8100970, "coordinates": [16.516333, 48.620288], "country": "\u00d6sterreich"}, {"stop_name": "H\u00f6rsching Bahnhof", "stop_id": 8100974, "coordinates": [14.186207000000001, 48.245674], "country": "\u00d6sterreich"}, {"stop_name": "Haslach/M\u00fchl Bahnhof", "stop_id": 8100976, "coordinates": [14.030892999999999, 48.554476], "country": "\u00d6sterreich"}, {"stop_name": "Hausruck Bahnhof", "stop_id": 8100980, "coordinates": [13.571620000000001, 48.129612], "country": "\u00d6sterreich"}, {"stop_name": "Haselstauden (Dornbirn) Bahnhof", "stop_id": 8100981, "coordinates": [9.749067, 47.432445], "country": "\u00d6sterreich"}, {"stop_name": "Haslau/Donau Bahnhof", "stop_id": 8100982, "coordinates": [16.710441, 48.109656], "country": "\u00d6sterreich"}, {"stop_name": "Hirtenberg Bahnhof", "stop_id": 8100983, "coordinates": [16.175649, 47.929443], "country": "\u00d6sterreich"}, {"stop_name": "Hautzendorf N\u00d6 Bahnhof", "stop_id": 8100984, "coordinates": [16.492898, 48.45132], "country": "\u00d6sterreich"}, {"stop_name": "Hatting in Tirol Bahnhof", "stop_id": 8100986, "coordinates": [11.170706, 47.281282], "country": "\u00d6sterreich"}, {"stop_name": "Hausleiten b.Stockerau Bahnhof", "stop_id": 8100990, "coordinates": [16.10621, 48.391351], "country": "\u00d6sterreich"}, {"stop_name": "H\u00fcttau Bahnhof", "stop_id": 8100993, "coordinates": [13.320623999999999, 47.41565], "country": "\u00d6sterreich"}, {"stop_name": "Herzograd Bahnhof", "stop_id": 8100995, "coordinates": [14.503487, 48.161382], "country": "\u00d6sterreich"}, {"stop_name": "Herzogenburg Stadt Bahnhof", "stop_id": 8100996, "coordinates": [15.700586, 48.284465000000004], "country": "\u00d6sterreich"}, {"stop_name": "Herzogenburg-Wielandsthal Bahnhof", "stop_id": 8100997, "coordinates": [15.690570000000001, 48.285140999999996], "country": "\u00d6sterreich"}, {"stop_name": "Iglm\u00fchle Bahnhst", "stop_id": 8100999, "coordinates": [14.036441, 48.52057], "country": "\u00d6sterreich"}, {"stop_name": "Imsterberg Bahnhof", "stop_id": 8101000, "coordinates": [10.706024000000001, 47.211217], "country": "\u00d6sterreich"}, {"stop_name": "Wien Blumental Bahnhof", "stop_id": 8101003, "coordinates": [16.369181, 48.138749], "country": "\u00d6sterreich"}, {"stop_name": "Irschen in Ktn Bahnhof", "stop_id": 8101005, "coordinates": [13.01313, 46.740595], "country": "\u00d6sterreich"}, {"stop_name": "Inzing in Tirol Bahnhof", "stop_id": 8101007, "coordinates": [11.198682000000002, 47.277968], "country": "\u00d6sterreich"}, {"stop_name": "Jennersdorf Bahnhof", "stop_id": 8101010, "coordinates": [16.139694, 46.935102], "country": "\u00d6sterreich"}, {"stop_name": "Judendorf-Stra\u00dfengel Bahnhof", "stop_id": 8101011, "coordinates": [15.343931, 47.11845], "country": "\u00d6sterreich"}, {"stop_name": "Jedenspeigen Bahnhof", "stop_id": 8101012, "coordinates": [16.878285, 48.495033], "country": "\u00d6sterreich"}, {"stop_name": "Wien Jedlersdorf Bahnhof", "stop_id": 8101013, "coordinates": [16.396143, 48.273854], "country": "\u00d6sterreich"}, {"stop_name": "Johnsbach im Nationalpark Bahnhof", "stop_id": 8101014, "coordinates": [14.595882999999999, 47.582407], "country": "\u00d6sterreich"}, {"stop_name": "Kalsdorf b.Graz Bahnhof", "stop_id": 8101019, "coordinates": [15.470041, 46.964295], "country": "\u00d6sterreich"}, {"stop_name": "Kapellerfeld Bahnhst", "stop_id": 8101020, "coordinates": [16.495079, 48.316827], "country": "\u00d6sterreich"}, {"stop_name": "Kamegg Bahnhof", "stop_id": 8101024, "coordinates": [15.657556, 48.610135], "country": "\u00d6sterreich"}, {"stop_name": "Kainisch Bahnhof", "stop_id": 8101025, "coordinates": [13.841507, 47.570702000000004], "country": "\u00d6sterreich"}, {"stop_name": "Katsdorf Bahnhst", "stop_id": 8101029, "coordinates": [14.490604699999999, 48.312203100000005], "country": "\u00d6sterreich"}, {"stop_name": "Kapfenberg Fachhochschule Bahnhof", "stop_id": 8101032, "coordinates": [15.329131, 47.454689], "country": "\u00d6sterreich"}, {"stop_name": "Kottingbrunn Bahnhof", "stop_id": 8101033, "coordinates": [16.226976999999998, 47.950187], "country": "\u00d6sterreich"}, {"stop_name": "Kematen/Krems-Piberbach Bahnhof", "stop_id": 8101036, "coordinates": [14.203048, 48.112992], "country": "\u00d6sterreich"}, {"stop_name": "Kematen in Tirol Bahnhof", "stop_id": 8101038, "coordinates": [11.276705, 47.261191], "country": "\u00d6sterreich"}, {"stop_name": "Kitzb\u00fchel Hahnenkamm Bahnhof", "stop_id": 8101044, "coordinates": [12.389657000000001, 47.443483], "country": "\u00d6sterreich"}, {"stop_name": "Kimpling Bahnhof", "stop_id": 8101045, "coordinates": [13.669758999999999, 48.266601], "country": "\u00d6sterreich"}, {"stop_name": "Kirchstetten b.Neulengbach Bahnhof", "stop_id": 8101048, "coordinates": [15.821487300000003, 48.190220000000004], "country": "\u00d6sterreich"}, {"stop_name": "Klamm-Schottwien Bahnhof", "stop_id": 8101050, "coordinates": [15.872418, 47.665159], "country": "\u00d6sterreich"}, {"stop_name": "Kledering Bahnhof", "stop_id": 8101051, "coordinates": [16.439159, 48.133297], "country": "\u00d6sterreich"}, {"stop_name": "Kleblach-Lind Bahnhof", "stop_id": 8101055, "coordinates": [13.342663, 46.772304999999996], "country": "\u00d6sterreich"}, {"stop_name": "Kammern im Liesingtal Bahnhof", "stop_id": 8101061, "coordinates": [14.903597, 47.389901], "country": "\u00d6sterreich"}, {"stop_name": "Kumpfm\u00fchl Bahnhof", "stop_id": 8101063, "coordinates": [13.620307999999998, 48.269377], "country": "\u00d6sterreich"}, {"stop_name": "Kottingneusiedl Bahnhof", "stop_id": 8101065, "coordinates": [16.464287, 48.703468], "country": "\u00d6sterreich"}, {"stop_name": "Kothm\u00fchle Bahnhof", "stop_id": 8101071, "coordinates": [13.940643, 47.886714000000005], "country": "\u00d6sterreich"}, {"stop_name": "Kappel am Krappfeld Bahnhof", "stop_id": 8101075, "coordinates": [14.475617999999999, 46.8376], "country": "\u00d6sterreich"}, {"stop_name": "Kraubath/Mur Bahnhof", "stop_id": 8101076, "coordinates": [14.945529, 47.306003999999994], "country": "\u00d6sterreich"}, {"stop_name": "Kreisbach Bahnhof", "stop_id": 8101077, "coordinates": [15.607882, 48.100559999999994], "country": "\u00d6sterreich"}, {"stop_name": "Kastenreith Bahnhof", "stop_id": 8101079, "coordinates": [14.638020000000001, 47.850733], "country": "\u00d6sterreich"}, {"stop_name": "Krieglach Bahnhof", "stop_id": 8101080, "coordinates": [15.560027, 47.547165], "country": "\u00d6sterreich"}, {"stop_name": "Kr\u00f6llendorf Bahnhof", "stop_id": 8101081, "coordinates": [14.789012, 48.042553000000005], "country": "\u00d6sterreich"}, {"stop_name": "Krummnu\u00dfbaum an der Westbahn Bahnhof", "stop_id": 8101083, "coordinates": [15.1598, 48.207821], "country": "\u00d6sterreich"}, {"stop_name": "Kritzendorf Bahnhof", "stop_id": 8101084, "coordinates": [16.29897, 48.336065999999995], "country": "\u00d6sterreich"}, {"stop_name": "Krenstetten-Biberbach Bahnhof", "stop_id": 8101085, "coordinates": [14.699185, 48.055224], "country": "\u00d6sterreich"}, {"stop_name": "Klagenfurt Annabichl Bahnhof", "stop_id": 8101090, "coordinates": [14.314959, 46.650591], "country": "\u00d6sterreich"}, {"stop_name": "Klagenfurt Ebenthal Bahnhof", "stop_id": 8101091, "coordinates": [14.333468, 46.616628000000006], "country": "\u00d6sterreich"}, {"stop_name": "Klagenfurt Lend Bahnhof", "stop_id": 8101093, "coordinates": [14.284004000000001, 46.621531], "country": "\u00d6sterreich"}, {"stop_name": "Klagenfurt Ostbahnhof", "stop_id": 8101094, "coordinates": [14.321979, 46.62162], "country": "\u00d6sterreich"}, {"stop_name": "K\u00fcb Bahnhof", "stop_id": 8101097, "coordinates": [15.876517999999999, 47.681478999999996], "country": "\u00d6sterreich"}, {"stop_name": "K\u00fcpfern Bahnhst", "stop_id": 8101099, "coordinates": [14.6106899, 47.8584395], "country": "\u00d6sterreich"}, {"stop_name": "Klaus in Vlbg Bahnhst", "stop_id": 8101100, "coordinates": [9.62447941, 47.3085796], "country": "\u00d6sterreich"}, {"stop_name": "Klosterneuburg Weidling Bahnhof", "stop_id": 8101101, "coordinates": [16.334978, 48.297092], "country": "\u00d6sterreich"}, {"stop_name": "Lanzenkirchen Bahnhof", "stop_id": 8101104, "coordinates": [16.24225, 47.750674], "country": "\u00d6sterreich"}, {"stop_name": "Kleinzell im M\u00fchlkreis Bahnhof", "stop_id": 8101106, "coordinates": [14.032079999999999, 48.458486], "country": "\u00d6sterreich"}, {"stop_name": "Lacken im M\u00fchlkreis Bahnhof", "stop_id": 8101110, "coordinates": [14.091409, 48.385861], "country": "\u00d6sterreich"}, {"stop_name": "Ladendorf Bahnhof", "stop_id": 8101111, "coordinates": [16.510106, 48.536164], "country": "\u00d6sterreich"}, {"stop_name": "Lahrndorf b.Garsten Bahnhof", "stop_id": 8101118, "coordinates": [14.373813, 47.994836], "country": "\u00d6sterreich"}, {"stop_name": "Lehen-Altensam Bahnhof", "stop_id": 8101119, "coordinates": [13.701012, 48.035395], "country": "\u00d6sterreich"}, {"stop_name": "Lauffen b.Bad Ischl Bahnhof", "stop_id": 8101120, "coordinates": [13.616370000000002, 47.674384], "country": "\u00d6sterreich"}, {"stop_name": "Laxenburg-Biedermannsdorf Bahnhof", "stop_id": 8101122, "coordinates": [16.355504999999997, 48.076944], "country": "\u00d6sterreich"}, {"stop_name": "Leobendorf-Burg Kreuzenstein Bahnhof", "stop_id": 8101124, "coordinates": [16.301858, 48.364635], "country": "\u00d6sterreich"}, {"stop_name": "Lendorf im Drautal Bahnhof", "stop_id": 8101126, "coordinates": [13.419189999999999, 46.827524], "country": "\u00d6sterreich"}, {"stop_name": "Linz/Donau Ebelsberg Bahnhof", "stop_id": 8101127, "coordinates": [14.347173999999999, 48.252061], "country": "\u00d6sterreich"}, {"stop_name": "Lenzing O\u00d6 Ort Bahnhof", "stop_id": 8101135, "coordinates": [13.606660999999999, 47.971687], "country": "\u00d6sterreich"}, {"stop_name": "Lebring Bahnhof", "stop_id": 8101137, "coordinates": [15.532245999999999, 46.854928], "country": "\u00d6sterreich"}, {"stop_name": "Lenzing O\u00d6 Bahnhof", "stop_id": 8101141, "coordinates": [13.613629000000001, 47.983224], "country": "\u00d6sterreich"}, {"stop_name": "Leogang-Steinberge Bahnhof", "stop_id": 8101146, "coordinates": [12.768460000000001, 47.444935], "country": "\u00d6sterreich"}, {"stop_name": "Lichendorf b.Mureck Bahnhof", "stop_id": 8101148, "coordinates": [15.698332, 46.713905], "country": "\u00d6sterreich"}, {"stop_name": "Wien Liesing Bahnhof", "stop_id": 8101150, "coordinates": [16.284232, 48.134584999999994], "country": "\u00d6sterreich"}, {"stop_name": "Lilienfeld Bahnhof", "stop_id": 8101153, "coordinates": [15.593046, 48.013766], "country": "\u00d6sterreich"}, {"stop_name": "Limberg-Maissau Bahnhof", "stop_id": 8101154, "coordinates": [15.863304999999999, 48.592337], "country": "\u00d6sterreich"}, {"stop_name": "Lind-Rosegg Bahnhst", "stop_id": 8101157, "coordinates": [14.0007234, 46.606135200000004], "country": "\u00d6sterreich"}, {"stop_name": "Langenlebarn Bahnhof", "stop_id": 8101159, "coordinates": [16.121748, 48.327521000000004], "country": "\u00d6sterreich"}, {"stop_name": "La\u00dfnitzthal Bahnhof", "stop_id": 8101161, "coordinates": [15.656264000000002, 47.088144], "country": "\u00d6sterreich"}, {"stop_name": "Leobersdorf Bahnhof", "stop_id": 8101163, "coordinates": [16.230985, 47.938434], "country": "\u00d6sterreich"}, {"stop_name": "L\u00f6dersdorf Bahnhof", "stop_id": 8101164, "coordinates": [15.945529999999998, 46.954678], "country": "\u00d6sterreich"}, {"stop_name": "Leonding (Westbahn) Bahnhof", "stop_id": 8101165, "coordinates": [14.253954, 48.274031], "country": "\u00d6sterreich"}, {"stop_name": "Loosdorf b.Melk Bahnhof", "stop_id": 8101169, "coordinates": [15.405047, 48.194833], "country": "\u00d6sterreich"}, {"stop_name": "Wien Leopoldau Bahnhof", "stop_id": 8101170, "coordinates": [16.44833, 48.277312], "country": "\u00d6sterreich"}, {"stop_name": "Lanzendorf-Rannersdorf Bahnhst", "stop_id": 8101173, "coordinates": [16.44749, 48.113239], "country": "\u00d6sterreich"}, {"stop_name": "Lor\u00fcns Bahnhof", "stop_id": 8101175, "coordinates": [9.853707, 47.130681], "country": "\u00d6sterreich"}, {"stop_name": "Lasberg-St.Oswald Bahnhof", "stop_id": 8101178, "coordinates": [14.521517999999999, 48.460914], "country": "\u00d6sterreich"}, {"stop_name": "Laa/Thaya Bahnhof", "stop_id": 8101180, "coordinates": [16.402669, 48.723713000000004], "country": "\u00d6sterreich"}, {"stop_name": "Lungitz/Gusen Bahnhof", "stop_id": 8101185, "coordinates": [14.47836, 48.28867], "country": "\u00d6sterreich"}, {"stop_name": "Langenwang/M\u00fcrz Bahnhof", "stop_id": 8101190, "coordinates": [15.613873000000002, 47.568134], "country": "\u00d6sterreich"}, {"stop_name": "Langenzersdorf Bahnhof", "stop_id": 8101191, "coordinates": [16.356115, 48.306352000000004], "country": "\u00d6sterreich"}, {"stop_name": "Linz/Donau Oed Bahnhof", "stop_id": 8101193, "coordinates": [14.276544, 48.264676], "country": "\u00d6sterreich"}, {"stop_name": "Linz/Donau Wegscheid Bahnhof", "stop_id": 8101195, "coordinates": [14.275529999999998, 48.249493], "country": "\u00d6sterreich"}, {"stop_name": "Maria Anzbach Bahnhof", "stop_id": 8101197, "coordinates": [15.934733999999999, 48.187974], "country": "\u00d6sterreich"}, {"stop_name": "Mandling/Enns Bahnhof", "stop_id": 8101202, "coordinates": [13.568214999999999, 47.404178], "country": "\u00d6sterreich"}, {"stop_name": "Markersdorf/Pielach Bahnhof", "stop_id": 8101203, "coordinates": [15.496969, 48.196442], "country": "\u00d6sterreich"}, {"stop_name": "Marchtrenk Bahnhof", "stop_id": 8101204, "coordinates": [14.0994716, 48.2009977], "country": "\u00d6sterreich"}, {"stop_name": "Mautbr\u00fccken Bahnhof", "stop_id": 8101205, "coordinates": [14.189169, 46.721281], "country": "\u00d6sterreich"}, {"stop_name": "Mixnitz-B\u00e4rensch\u00fctzklamm Bahnhof", "stop_id": 8101210, "coordinates": [15.360285000000001, 47.331581], "country": "\u00d6sterreich"}, {"stop_name": "Michelhausen Bahnhof", "stop_id": 8101217, "coordinates": [15.934079, 48.296490000000006], "country": "\u00d6sterreich"}, {"stop_name": "Miesenbach-Waidmannsfeld Bahnhof", "stop_id": 8101218, "coordinates": [16.005301, 47.877569], "country": "\u00d6sterreich"}, {"stop_name": "Mitterbergh\u00fctten Bahnhof", "stop_id": 8101219, "coordinates": [13.222442000000001, 47.395365000000005], "country": "\u00d6sterreich"}, {"stop_name": "Mitterdorf-Veitsch Bahnhof", "stop_id": 8101221, "coordinates": [15.512378, 47.536558], "country": "\u00d6sterreich"}, {"stop_name": "Lambach Markt Bahnhof", "stop_id": 8101223, "coordinates": [13.869810999999999, 48.094376000000004], "country": "\u00d6sterreich"}, {"stop_name": "Maria Lanzendorf Bahnhof", "stop_id": 8101224, "coordinates": [16.419649, 48.102434], "country": "\u00d6sterreich"}, {"stop_name": "M\u00fchling/Erlauf Bahnhof", "stop_id": 8101225, "coordinates": [15.135523999999998, 48.110985], "country": "\u00d6sterreich"}, {"stop_name": "Wien Matzleinsdorfer Platz (\u00d6BB)", "stop_id": 8101227, "coordinates": [16.357146, 48.179984999999995], "country": "\u00d6sterreich"}, {"stop_name": "Mauer-\u00d6hling Bahnhof", "stop_id": 8101228, "coordinates": [14.800896100000001, 48.094953499999995], "country": "\u00d6sterreich"}, {"stop_name": "M\u00f6llersdorf Aspangbahn Bahnhof", "stop_id": 8101229, "coordinates": [16.312557, 48.02901], "country": "\u00d6sterreich"}, {"stop_name": "M\u00f6dling Bahnhof", "stop_id": 8101230, "coordinates": [16.295525, 48.085967], "country": "\u00d6sterreich"}, {"stop_name": "Mogersdorf Bahnhof", "stop_id": 8101231, "coordinates": [16.229231, 46.945553000000004], "country": "\u00d6sterreich"}, {"stop_name": "M\u00f6tz Bahnhof", "stop_id": 8101237, "coordinates": [10.960014, 47.275237], "country": "\u00d6sterreich"}, {"stop_name": "Paternion Markt Bahnhof", "stop_id": 8101238, "coordinates": [13.642370000000001, 46.725232], "country": "\u00d6sterreich"}, {"stop_name": "Maria Saal Bahnhst", "stop_id": 8101239, "coordinates": [14.339076, 46.682761], "country": "\u00d6sterreich"}, {"stop_name": "Sachsenburg Markt Bahnhof", "stop_id": 8101241, "coordinates": [13.348301999999999, 46.825635999999996], "country": "\u00d6sterreich"}, {"stop_name": "St.Marein im M\u00fcrztal-St.Lorenzen Bahnhof", "stop_id": 8101243, "coordinates": [15.373263, 47.473265000000005], "country": "\u00d6sterreich"}, {"stop_name": "Mariahof-St.Lambrecht Bahnhof", "stop_id": 8101244, "coordinates": [14.374220999999999, 47.104258], "country": "\u00d6sterreich"}, {"stop_name": "Mistelbach/Zaya Bahnhof", "stop_id": 8101245, "coordinates": [16.563623, 48.565684000000005], "country": "\u00d6sterreich"}, {"stop_name": "Muckendorf-Wipfing Bahnhst", "stop_id": 8101247, "coordinates": [16.150039000000003, 48.328297], "country": "\u00d6sterreich"}, {"stop_name": "M\u00fchlheim/Inn Bahnhof", "stop_id": 8101248, "coordinates": [13.220934, 48.269703], "country": "\u00d6sterreich"}, {"stop_name": "Neuhofen/Krems Bahnhof", "stop_id": 8101255, "coordinates": [14.238462, 48.136032], "country": "\u00d6sterreich"}, {"stop_name": "Neukirchen-Gampern Bahnhof", "stop_id": 8101260, "coordinates": [13.549316000000001, 48.020301], "country": "\u00d6sterreich"}, {"stop_name": "Neubau-Kreuzstetten Bahnhof", "stop_id": 8101261, "coordinates": [16.500651, 48.497338], "country": "\u00d6sterreich"}, {"stop_name": "Nettingsdorf Bahnhof", "stop_id": 8101265, "coordinates": [14.258532, 48.189525], "country": "\u00d6sterreich"}, {"stop_name": "Neuhaus/Gail Bahnhof", "stop_id": 8101267, "coordinates": [13.780117, 46.55508], "country": "\u00d6sterreich"}, {"stop_name": "Niederkreuzstetten Bahnhof", "stop_id": 8101272, "coordinates": [16.479820999999998, 48.477996000000005], "country": "\u00d6sterreich"}, {"stop_name": "Nieder\u00f6blarn Bahnhof", "stop_id": 8101273, "coordinates": [14.014299, 47.481657], "country": "\u00d6sterreich"}, {"stop_name": "Nikolsdorf Bahnhof", "stop_id": 8101274, "coordinates": [12.895048, 46.779189], "country": "\u00d6sterreich"}, {"stop_name": "Niklasdorf Bahnhof", "stop_id": 8101275, "coordinates": [15.1548082, 47.393744700000006], "country": "\u00d6sterreich"}, {"stop_name": "Neunkirchen N\u00d6 Bahnhof", "stop_id": 8101277, "coordinates": [16.085103, 47.731612], "country": "\u00d6sterreich"}, {"stop_name": "Neukirchen b.Lambach Bahnhst", "stop_id": 8101278, "coordinates": [13.8327259, 48.095161299999994], "country": "\u00d6sterreich"}, {"stop_name": "Neulengbach Bahnhof", "stop_id": 8101279, "coordinates": [15.892651, 48.19945], "country": "\u00d6sterreich"}, {"stop_name": "Neulengbach Stadt Bahnhof", "stop_id": 8101280, "coordinates": [15.906917000000002, 48.196176], "country": "\u00d6sterreich"}, {"stop_name": "Neuhaus-Niederwaldkirchen Bahnhof", "stop_id": 8101282, "coordinates": [14.05135, 48.442014], "country": "\u00d6sterreich"}, {"stop_name": "N\u00f6stlbach-St.Marien Bahnhof", "stop_id": 8101283, "coordinates": [14.246535999999999, 48.163990000000005], "country": "\u00d6sterreich"}, {"stop_name": "N\u00f6tsch im Gailtal Bahnhof", "stop_id": 8101284, "coordinates": [13.625226999999999, 46.588663000000004], "country": "\u00d6sterreich"}, {"stop_name": "Niedernfritz-St.Martin Bahnhof", "stop_id": 8101287, "coordinates": [13.344651999999998, 47.421301], "country": "\u00d6sterreich"}, {"stop_name": "Neuratting Bahnhof", "stop_id": 8101288, "coordinates": [13.373899, 48.227158], "country": "\u00d6sterreich"}, {"stop_name": "N\u00fcziders Bahnhof", "stop_id": 8101289, "coordinates": [9.79401112, 47.1709129], "country": "\u00d6sterreich"}, {"stop_name": "Wien Nussdorf Bahnhof", "stop_id": 8101290, "coordinates": [16.367607, 48.260666], "country": "\u00d6sterreich"}, {"stop_name": "Nu\u00dfbach Bahnhof", "stop_id": 8101292, "coordinates": [14.123037, 47.972076], "country": "\u00d6sterreich"}, {"stop_name": "Neumarkt/Ybbs-Karlsbach Bahnhst", "stop_id": 8101293, "coordinates": [15.050990599999999, 48.1422581], "country": "\u00d6sterreich"}, {"stop_name": "Oberbrunn im Innkreis Bahnhof", "stop_id": 8101295, "coordinates": [13.513224, 48.170994], "country": "\u00d6sterreich"}, {"stop_name": "Oberhart b.Steinhaus Bahnhof", "stop_id": 8101299, "coordinates": [14.039181, 48.103986], "country": "\u00d6sterreich"}, {"stop_name": "Oepping Bahnhof", "stop_id": 8101306, "coordinates": [13.960448000000001, 48.59986], "country": "\u00d6sterreich"}, {"stop_name": "Oftering Bahnhof", "stop_id": 8101308, "coordinates": [14.151114999999999, 48.227598], "country": "\u00d6sterreich"}, {"stop_name": "Obertraun Koppenbr\u00fcllerh\u00f6hle Bahnhof", "stop_id": 8101311, "coordinates": [13.720357, 47.564333000000005], "country": "\u00d6sterreich"}, {"stop_name": "Ollersbach Bahnhof", "stop_id": 8101312, "coordinates": [15.848111, 48.191608], "country": "\u00d6sterreich"}, {"stop_name": "Oberland O\u00d6 Bahnhof", "stop_id": 8101313, "coordinates": [14.744844, 47.902313], "country": "\u00d6sterreich"}, {"stop_name": "Oberolberndorf Bahnhof", "stop_id": 8101315, "coordinates": [16.174229, 48.41361], "country": "\u00d6sterreich"}, {"stop_name": "Oberpiesting Bahnhof", "stop_id": 8101316, "coordinates": [16.097175, 47.874474], "country": "\u00d6sterreich"}, {"stop_name": "Obersdorf N\u00d6 Bahnhst", "stop_id": 8101317, "coordinates": [16.516676999999998, 48.362286], "country": "\u00d6sterreich"}, {"stop_name": "Oberradlberg Bahnhof", "stop_id": 8101319, "coordinates": [15.670620000000001, 48.2407], "country": "\u00d6sterreich"}, {"stop_name": "Ortmann Bahnhof", "stop_id": 8101320, "coordinates": [15.979316, 47.893386], "country": "\u00d6sterreich"}, {"stop_name": "Obersee O\u00d6 Bahnhof", "stop_id": 8101322, "coordinates": [13.665714000000001, 47.591667], "country": "\u00d6sterreich"}, {"stop_name": "Oberthalheim-Timelkam Bahnhof", "stop_id": 8101324, "coordinates": [13.623754000000002, 48.001834], "country": "\u00d6sterreich"},